[
{"city": "Mont Saint Michel", "name": "H\u00f4tel Vert", "url": "https://www.booking.com/hotel/fr/vert.fr.html", "score": "8,1", "rating_stars": "2.0", "latitude": "48.61470049", "longitude": "-1.50961697"},
{"city": "Mont Saint Michel", "name": "Hotel De La Digue", "url": "https://www.booking.com/hotel/fr/de-la-digue.fr.html", "score": "7,2", "rating_stars": "3.0", "latitude": "48.61688155", "longitude": "-1.51091784"},
{"city": "Mont Saint Michel", "name": "Hotel Gabriel", "url": "https://www.booking.com/hotel/fr/hotel-gabriel.fr.html", "score": "8,0", "rating_stars": "3.0", "latitude": "48.61538141", "longitude": "-1.51070997"},
{"city": "Mont Saint Michel", "name": "Les Terrasses Poulard", "url": "https://www.booking.com/hotel/fr/les-terrasses-poulard.fr.html", "score": "7,3", "rating_stars": "3.0", "latitude": "48.63534943", "longitude": "-1.51037872"},
{"city": "Mont Saint Michel", "name": "Mercure Mont Saint Michel", "url": "https://www.booking.com/hotel/fr/mont-saint-michel.fr.html", "score": "8,2", "rating_stars": "4.0", "latitude": "48.61424653", "longitude": "-1.51054502"},
{"city": "Mont Saint Michel", "name": "La M\u00e8re Poulard", "url": "https://www.booking.com/hotel/fr/la-mere-poulard.fr.html", "score": "7,2", "rating_stars": "3.0", "latitude": "48.63508532", "longitude": "-1.51053965"},
{"city": "Mont Saint Michel", "name": "Le Relais Saint Michel", "url": "https://www.booking.com/hotel/fr/le-relais-saint-michel.fr.html", "score": "7,8", "rating_stars": "4.0", "latitude": "48.61758727", "longitude": "-1.51039615"},
{"city": "Mont Saint Michel", "name": "La Vieille Auberge", "url": "https://www.booking.com/hotel/fr/la-vieille-auberge-le-mont-saint-michel.fr.html", "score": "7,4", "rating_stars": "2.0", "latitude": "48.63606300", "longitude": "-1.51145700"},
{"city": "Mont Saint Michel", "name": "Le Mouton Blanc", "url": "https://www.booking.com/hotel/fr/le-mouton-blanc-le-mont-saint-michel.fr.html", "score": "7,2", "rating_stars": "3.0", "latitude": "48.63602298", "longitude": "-1.50989592"},
{"city": "Mont Saint Michel", "name": "Le Saint Aubert", "url": "https://www.booking.com/hotel/fr/hotel-saint-aubert.fr.html", "score": "7,2", "rating_stars": "3.0", "latitude": "48.61293783", "longitude": "-1.51010513"},
{"city": "Amiens", "name": "Premi\u00e8re Classe Amiens", "url": "https://www.booking.com/hotel/fr/premia-re-classe-amiens.fr.html", "score": "6,3", "rating_stars": "2.0", "latitude": "49.91856793", "longitude": "2.29331338"},
{"city": "Amiens", "name": "Studio / chambre calme pr\u00e9s de l'\u00e9tang st pierre.", "url": "https://www.booking.com/hotel/fr/studio-chambre-calme-pres-de-l-etang-st-pierre.fr.html", "score": "9,3", "rating_stars": "0.0", "latitude": "49.90035030", "longitude": "2.31223240"},
{"city": "Amiens", "name": "Charmant T2 hyper centre. Cath\u00e9drale", "url": "https://www.booking.com/hotel/fr/charmant-t2-hyper-centre-cathedrale.fr.html", "score": "8,8", "rating_stars": "0.0", "latitude": "49.89387632", "longitude": "2.30091080"},
{"city": "Amiens", "name": "Le Saint Louis", "url": "https://www.booking.com/hotel/fr/le-saint-louis-amienq.fr.html", "score": "8,1", "rating_stars": "3.0", "latitude": "49.88977885", "longitude": "2.30249941"},
{"city": "Amiens", "name": "Appart'City Amiens Gare Cath\u00e9drale", "url": "https://www.booking.com/hotel/fr/appart-city-amiens.fr.html", "score": "7,4", "rating_stars": "3.0", "latitude": "49.89431630", "longitude": "2.30976120"},
{"city": "Amiens", "name": "ibis Amiens Centre Cathedrale", "url": "https://www.booking.com/hotel/fr/ibis-amiens-centre-cathedrale.fr.html", "score": "7,4", "rating_stars": "3.0", "latitude": "49.89199900", "longitude": "2.29197000"},
{"city": "Amiens", "name": "Mercure Amiens Cath\u00e9drale", "url": "https://www.booking.com/hotel/fr/mercure-amiens-cathdrale.fr.html", "score": "8,3", "rating_stars": "4.0", "latitude": "49.89571084", "longitude": "2.29956239"},
{"city": "Amiens", "name": "ibis budget Amiens Centre Gare", "url": "https://www.booking.com/hotel/fr/ibis-budget-amiens-centre-gare.fr.html", "score": "8,2", "rating_stars": "2.0", "latitude": "49.89159100", "longitude": "2.31357300"},
{"city": "Amiens", "name": "ibis Styles Amiens Centre", "url": "https://www.booking.com/hotel/fr/ibis-styles-amiens-centre.fr.html", "score": "8,7", "rating_stars": "3.0", "latitude": "49.89142200", "longitude": "2.30499600"},
{"city": "Amiens", "name": "Le Vivier", "url": "https://www.booking.com/hotel/fr/le-vivier-amiens.fr.html", "score": "8,4", "rating_stars": "0.0", "latitude": "49.88536500", "longitude": "2.26966900"},
{"city": "Paris", "name": "R\u00e9sidence Palais \u00c9toile", "url": "https://www.booking.com/hotel/fr/residence-palais-etoile.fr.html", "score": "9,2", "rating_stars": "1.0", "latitude": "48.87838937", "longitude": "2.28467211"},
{"city": "Amiens", "name": "Appartement 2 personnes : LES CANAUX", "url": "https://www.booking.com/hotel/fr/appartement-2-personnes-les-canaux.fr.html", "score": null, "rating_stars": "0.0", "latitude": "49.89610250", "longitude": "2.31078990"},
{"city": "Amiens", "name": "L'Annexe Amiens", "url": "https://www.booking.com/hotel/fr/l-39-annexe-amiens.fr.html", "score": "9,3", "rating_stars": "0.0", "latitude": "49.88696940", "longitude": "2.29540940"},
{"city": "Amiens", "name": "Luxury", "url": "https://www.booking.com/hotel/fr/luxury-amiens.fr.html", "score": "8,7", "rating_stars": "0.0", "latitude": "49.90518380", "longitude": "2.28666280"},
{"city": "Amiens", "name": "LES TERRASSES", "url": "https://www.booking.com/hotel/fr/les-terrasses-amiens.fr.html", "score": "10", "rating_stars": "0.0", "latitude": "49.89959580", "longitude": "2.31181340"},
{"city": "Amiens", "name": "Duplex cosy et contemporain avec parking priv\u00e9", "url": "https://www.booking.com/hotel/fr/duplex-cosy-et-contemporain-avec-parking-prive.fr.html", "score": "8,8", "rating_stars": "0.0", "latitude": "49.89575350", "longitude": "2.27820300"},
{"city": "Amiens", "name": "R\u00e9sidence Le 23 Amiens Centre", "url": "https://www.booking.com/hotel/fr/residence-cathedrale-amiens-centre.fr.html", "score": "8,2", "rating_stars": "0.0", "latitude": "49.89425342", "longitude": "2.30674937"},
{"city": "Amiens", "name": "Neoresid - R\u00e9sidence Saint Germain", "url": "https://www.booking.com/hotel/fr/residence-saint-germain.fr.html", "score": "8,5", "rating_stars": "0.0", "latitude": "49.89681629", "longitude": "2.29640922"},
{"city": "Amiens", "name": "La vall\u00e9e des Hortillonages", "url": "https://www.booking.com/hotel/fr/la-vallee-des-hortillonages.fr.html", "score": "9,3", "rating_stars": "0.0", "latitude": "49.89190360", "longitude": "2.31821330"},
{"city": "Amiens", "name": "R\u00e9sidence \u00ab Au passage color\u00e9 \u00bb", "url": "https://www.booking.com/hotel/fr/residence-au-passage-colore-amiens.fr.html", "score": "8,5", "rating_stars": "0.0", "latitude": "49.89188570", "longitude": "2.28622210"},
{"city": "Amiens", "name": "Casamara 2 studio au coeur du parc de la Hotoie", "url": "https://www.booking.com/hotel/fr/casamara-2.fr.html", "score": "9,4", "rating_stars": "0.0", "latitude": "49.89692740", "longitude": "2.27974310"},
{"city": "Amiens", "name": "ibis Amiens Centre Cathedrale", "url": "https://www.booking.com/hotel/fr/ibis-amiens-centre-cathedrale.fr.html", "score": "7,4", "rating_stars": "3.0", "latitude": "49.89199900", "longitude": "2.29197000"},
{"city": "Amiens", "name": "La Samarienne", "url": "https://www.booking.com/hotel/fr/la-samarienne.fr.html", "score": "8,3", "rating_stars": "0.0", "latitude": "49.90675334", "longitude": "2.30997317"},
{"city": "Amiens", "name": "La WAIDE Beau studio centre ville WIFI NETFLIX tout \u00e9quip\u00e9", "url": "https://www.booking.com/hotel/fr/la-waide.fr.html", "score": "9,4", "rating_stars": "0.0", "latitude": "49.89797600", "longitude": "2.30115820"},
{"city": "Amiens", "name": "Charmant studio au coeur de St Leu hyper centre", "url": "https://www.booking.com/hotel/fr/charmant-studio-au-coeur-de-st-leu.fr.html", "score": "8,8", "rating_stars": "0.0", "latitude": "49.89350560", "longitude": "2.30695930"},
{"city": "Amiens", "name": "R\u00e9sidence Amiens hyper Centre", "url": "https://www.booking.com/hotel/fr/studette-amiens-centre.fr.html", "score": "7,8", "rating_stars": "0.0", "latitude": "49.89328513", "longitude": "2.29569197"},
{"city": "Amiens", "name": "The Nest", "url": "https://www.booking.com/hotel/fr/the-nest-amiens.fr.html", "score": "8,7", "rating_stars": "0.0", "latitude": "49.88930700", "longitude": "2.29463400"},
{"city": "Amiens", "name": "Charmante ami\u00e9noise", "url": "https://www.booking.com/hotel/fr/charmante-amienoise.fr.html", "score": "9,3", "rating_stars": "0.0", "latitude": "49.88477202", "longitude": "2.32903867"},
{"city": "Amiens", "name": "NEW: appartement tout confort + parking gratuit", "url": "https://www.booking.com/hotel/fr/new-appartement-tout-confort-parking-gratuit.fr.html", "score": null, "rating_stars": "0.0", "latitude": "49.89699920", "longitude": "2.27566410"},
{"city": "Amiens", "name": "R\u00e9sidence Le Bristol Amiens Centre", "url": "https://www.booking.com/hotel/fr/le-bristol-amiens-centre.fr.html", "score": "8,1", "rating_stars": "0.0", "latitude": "49.89212400", "longitude": "2.29552700"},
{"city": "Amiens", "name": "Le 360\u00b0 TOUR PERRET Panoramique LUXE 19E \u00e9tage", "url": "https://www.booking.com/hotel/fr/appartement-alfonse-fiquet.fr.html", "score": "9,9", "rating_stars": "4.0", "latitude": "49.89100520", "longitude": "2.30642390"},
{"city": "Amiens", "name": "Les jardins de Verdun", "url": "https://www.booking.com/hotel/fr/les-jardins-de-verdun.fr.html", "score": "8,8", "rating_stars": "0.0", "latitude": "49.89418982", "longitude": "2.31086499"},
{"city": "Mont Saint Michel", "name": "Chambres d'H\u00f4tes Fleur de Sel", "url": "https://www.booking.com/hotel/fr/fleur-de-sel-chambre-d-hotes.fr.html", "score": "8,9", "rating_stars": "0.0", "latitude": "48.59529729", "longitude": "-1.58873677"},
{"city": "St Malo", "name": "G\u00eete la Briantaise", "url": "https://www.booking.com/hotel/fr/gite-la-briantaise.fr.html", "score": "9,4", "rating_stars": "0.0", "latitude": "48.62017810", "longitude": "-2.00464870"},
{"city": "Bayeux", "name": "STUDIO MEDICIS", "url": "https://www.booking.com/hotel/fr/studio-medicis.fr.html", "score": "8,0", "rating_stars": "0.0", "latitude": "49.27759376", "longitude": "-0.70648616"},
{"city": "Le Havre", "name": "Appartement 2 pi\u00e8ces Le Havre Centre", "url": "https://www.booking.com/hotel/fr/appartement-2-pieces-le-havre-centre.fr.html", "score": "7,3", "rating_stars": "0.0", "latitude": "49.49362530", "longitude": "0.11797440"},
{"city": "Rouen", "name": "Mercure Rouen Centre Champ de Mars", "url": "https://www.booking.com/hotel/fr/mercure-rouen-champ-de-mars.fr.html", "score": "7,9", "rating_stars": "4.0", "latitude": "49.43555756", "longitude": "1.10374242"},
{"city": "Amiens", "name": "Le 21 vingt et un", "url": "https://www.booking.com/hotel/fr/petite-maison-renovee-10-mn-centre-ville.fr.html", "score": "8,5", "rating_stars": "0.0", "latitude": "49.90246100", "longitude": "2.29091720"},
{"city": "Amiens", "name": "STUDIO HYPER CENTRE GARE AMIENS WIFI 2 PERS", "url": "https://www.booking.com/hotel/fr/studio-hyper-centre-gare-amiens-wifi-2-pers.fr.html", "score": "9,6", "rating_stars": "0.0", "latitude": "49.88897700", "longitude": "2.31154480"},
{"city": "Amiens", "name": "Joli petit studio", "url": "https://www.booking.com/hotel/fr/joli-petit-studio-amiens.fr.html", "score": "7,0", "rating_stars": "0.0", "latitude": "49.88426280", "longitude": "2.30921130"},
{"city": "Amiens", "name": "NOVAGE SERVICES AMIENS", "url": "https://www.booking.com/hotel/fr/novage-services-amiens.fr.html", "score": "9,0", "rating_stars": "0.0", "latitude": "49.87497130", "longitude": "2.27142290"},
{"city": "Amiens", "name": "T2 Industriel avec terrasse et parking priv\u00e9", "url": "https://www.booking.com/hotel/fr/t2-industriel-avec-terrasse-et-parking-prive-amiens.fr.html", "score": "8,6", "rating_stars": "0.0", "latitude": "49.90253690", "longitude": "2.27674410"},
{"city": "Amiens", "name": "Logement en hypercentre dans une r\u00e9sidence", "url": "https://www.booking.com/hotel/fr/logement-en-hypercentre-dans-une-residence.fr.html", "score": null, "rating_stars": "0.0", "latitude": "49.89581500", "longitude": "2.31057850"},
{"city": "Amiens", "name": "Appartement Cosy 2 Amiens", "url": "https://www.booking.com/hotel/fr/appartement-cosy-2-amiens.fr.html", "score": "7,9", "rating_stars": "0.0", "latitude": "49.88881000", "longitude": "2.28467300"},
{"city": "Amiens", "name": "studio 3 Henriville", "url": "https://www.booking.com/hotel/fr/studio-3-henriville.fr.html", "score": "8,6", "rating_stars": "0.0", "latitude": "49.87904771", "longitude": "2.29191977"},
{"city": "Amiens", "name": "Appartement Vacances Picardie", "url": "https://www.booking.com/hotel/fr/courte-duree-amiens.fr.html", "score": "8,5", "rating_stars": "0.0", "latitude": "49.88851400", "longitude": "2.29400100"},
{"city": "Amiens", "name": "Auberge de Jeunesse HI Amiens", "url": "https://www.booking.com/hotel/fr/auberge-de-jeunesse-hi-amiens.fr.html", "score": "7,1", "rating_stars": "0.0", "latitude": "49.89017280", "longitude": "2.28083562"},
{"city": "Amiens", "name": "Appartement Rez de chauss\u00e9", "url": "https://www.booking.com/hotel/fr/appartement-rez-de-chausse-amiens.fr.html", "score": "8,1", "rating_stars": "0.0", "latitude": "49.89246800", "longitude": "2.30527310"},
{"city": "Amiens", "name": "Le 21 TER SPA option", "url": "https://www.booking.com/hotel/fr/le-21-ter.fr.html", "score": "8,5", "rating_stars": "0.0", "latitude": "49.90246100", "longitude": "2.29091720"},
{"city": "Amiens", "name": "The Circus, avec Terrasse et salle de sport", "url": "https://www.booking.com/hotel/fr/the-circus-terrasse.fr.html", "score": "9,5", "rating_stars": "0.0", "latitude": "49.88551930", "longitude": "2.29436240"},
{"city": "Amiens", "name": "WHITE HOUSE DHAVERNAS", "url": "https://www.booking.com/hotel/fr/white-house-dhavernas.fr.html", "score": "8,7", "rating_stars": "0.0", "latitude": "49.88146960", "longitude": "2.29987140"},
{"city": "Amiens", "name": "STUDIO GARE AMIENS TOUT \u00c9QUIP\u00c9 MAKEBA WIFI 2PERS", "url": "https://www.booking.com/hotel/fr/studio-gare-amiens-tout-equipe-makeba-wifi-2pers.fr.html", "score": "9,2", "rating_stars": "0.0", "latitude": "49.88897700", "longitude": "2.31154480"},
{"city": "Amiens", "name": "\"LE COCON\" en HYPERCENTRE", "url": "https://www.booking.com/hotel/fr/appartement-cosy-et-atypique-en-hypercentre.fr.html", "score": "9,3", "rating_stars": "0.0", "latitude": "49.89512738", "longitude": "2.29766471"},
{"city": "Amiens", "name": "Studio 5 Henriville", "url": "https://www.booking.com/hotel/fr/studio-ndeg6-henriville.fr.html", "score": "8,6", "rating_stars": "0.0", "latitude": "49.87912498", "longitude": "2.29193092"},
{"city": "Amiens", "name": "\"Au jardin sur l'eau\" hortillonnages", "url": "https://www.booking.com/hotel/fr/au-jardin-sur-l-39-eau.fr.html", "score": "9,5", "rating_stars": "0.0", "latitude": "49.88668300", "longitude": "2.33521200"},
{"city": "Amiens", "name": "Les Chambres du Verger", "url": "https://www.booking.com/hotel/fr/les-chambres-du-verger.fr.html", "score": "9,0", "rating_stars": "0.0", "latitude": "49.88572203", "longitude": "2.27150543"},
{"city": "Amiens", "name": "UMAN \u00ab un monde \u00e0 nous \u00bb", "url": "https://www.booking.com/hotel/fr/uman-un-monde-a-nous.fr.html", "score": "9,2", "rating_stars": "4.0", "latitude": "49.89347422", "longitude": "2.29730270"},
{"city": "Amiens", "name": "Hortillonne", "url": "https://www.booking.com/hotel/fr/hortillonne.fr.html", "score": "8,4", "rating_stars": "0.0", "latitude": "49.89196690", "longitude": "2.31273690"},
{"city": "Amiens", "name": "LE PERRET-CATHEDRALE B&B INN Centre-Ville WIFI NETFLIX", "url": "https://www.booking.com/hotel/fr/le-perret-cathedrale-b-amp-b-inn-centre-ville-wifi-netflix.fr.html", "score": "9,3", "rating_stars": "0.0", "latitude": "49.89798420", "longitude": "2.30115360"},
{"city": "Amiens", "name": "H\u00f4tel Marotte", "url": "https://www.booking.com/hotel/fr/ha-tel-marotte.fr.html", "score": "8,3", "rating_stars": "5.0", "latitude": "49.89105067", "longitude": "2.30115093"},
{"city": "Amiens", "name": "Cosy Studio hyper centre- Arriv\u00e9e Autonome", "url": "https://www.booking.com/hotel/fr/cosy-studio-en-plein-centre-ville.fr.html", "score": "9,1", "rating_stars": "0.0", "latitude": "49.89251112", "longitude": "2.29748664"},
{"city": "Amiens", "name": "Grand appartement moderne \u00e0 proximit\u00e9 de la gare", "url": "https://www.booking.com/hotel/fr/grand-appartement-moderne-a-proximite-de-la-gare.fr.html", "score": "8,0", "rating_stars": "0.0", "latitude": "49.89121560", "longitude": "2.30739730"},
{"city": "Amiens", "name": "Neoresid - R\u00e9sidence Saint Germain", "url": "https://www.booking.com/hotel/fr/residence-saint-germain.fr.html", "score": "8,5", "rating_stars": "0.0", "latitude": "49.89681629", "longitude": "2.29640922"},
{"city": "Rouen", "name": "B&B H\u00f4tel Rouen Centre St Sever", "url": "https://www.booking.com/hotel/fr/comforthotelrouencentre.fr.html", "score": "6,7", "rating_stars": "3.0", "latitude": "49.43032628", "longitude": "1.08483285"},
{"city": "Rouen", "name": "Appart'HomeCity - Rouen Grand Prieur\u00e9", "url": "https://www.booking.com/hotel/fr/le-grand-prieure.fr.html", "score": "8,2", "rating_stars": "0.0", "latitude": "49.42696016", "longitude": "1.08972469"},
{"city": "Rouen", "name": "Grand Studio de charme Rouen centre", "url": "https://www.booking.com/hotel/fr/grand-studio-de-charme-rouen-centre.fr.html", "score": "8,7", "rating_stars": "0.0", "latitude": "49.44627480", "longitude": "1.09911110"},
{"city": "Rouen", "name": "Magnifique Appartement Neuf", "url": "https://www.booking.com/hotel/fr/magnifique-t3-neuf-coeur-du-vieux-rouen.fr.html", "score": null, "rating_stars": "0.0", "latitude": "49.44157649", "longitude": "1.08395490"},
{"city": "Rouen", "name": "La Porte Cauchoise - Hypercentre coquet branch\u00e9", "url": "https://www.booking.com/hotel/fr/la-porte-cauchoise.fr.html", "score": "8,5", "rating_stars": "0.0", "latitude": "49.44432045", "longitude": "1.08741507"},
{"city": "Rouen", "name": "charming city center flat", "url": "https://www.booking.com/hotel/fr/charming-city-center-flat.fr.html", "score": "8,1", "rating_stars": "0.0", "latitude": "49.44211400", "longitude": "1.08843700"},
{"city": "Rouen", "name": "LA MAISON DU BONHEUR", "url": "https://www.booking.com/hotel/fr/la-maison-du-bonheur-rouen.fr.html", "score": "8,9", "rating_stars": "0.0", "latitude": "49.44803110", "longitude": "1.10064760"},
{"city": "Rouen", "name": "Appartement place du vieux march\u00e9", "url": "https://www.booking.com/hotel/fr/appartement-place-du-vieux-marche.fr.html", "score": "9,2", "rating_stars": "0.0", "latitude": "49.44289990", "longitude": "1.08737700"},
{"city": "Rouen", "name": "T2 de luxe centre ville + parking priv\u00e9 !!", "url": "https://www.booking.com/hotel/fr/t2-de-luxe-centre-ville-parking-prive.fr.html", "score": "8,6", "rating_stars": "0.0", "latitude": "49.44497900", "longitude": "1.08520140"},
{"city": "Rouen", "name": "Cosy'Appart - LE FONTENELLE", "url": "https://www.booking.com/hotel/fr/cosy-39-appart-le-fontenelle.fr.html", "score": "7,0", "rating_stars": "0.0", "latitude": "49.44276730", "longitude": "1.08596670"},
{"city": "Rouen", "name": "Ibis Styles Rouen Centre Rive Gauche", "url": "https://www.booking.com/hotel/fr/ibis-styles-rouen-centre-rive-gauche.fr.html", "score": "8,5", "rating_stars": "3.0", "latitude": "49.42498666", "longitude": "1.06860875"},
{"city": "Rouen", "name": "Le loft d Oscar Hyper centre", "url": "https://www.booking.com/hotel/fr/le-loft-d-oscar-rouen.fr.html", "score": "9,6", "rating_stars": "0.0", "latitude": "49.44427180", "longitude": "1.09631352"},
{"city": "Rouen", "name": "ROUEN F3 ORBE Sweet Home", "url": "https://www.booking.com/hotel/fr/f3-orbe-sweet-home.fr.html", "score": "5,8", "rating_stars": "0.0", "latitude": "49.44338770", "longitude": "1.10439220"},
{"city": "Rouen", "name": "L'INDUSTRIEL CHIC, 2 PIECES AVEC VU IMPRENABLE SUR ROUEN", "url": "https://www.booking.com/hotel/fr/industriel-chic-2-pieces-avec-vu-imprenable-sur-rouen.fr.html", "score": "9,0", "rating_stars": "0.0", "latitude": "49.45082605", "longitude": "1.07234388"},
{"city": "Rouen", "name": "Kindarena, Les Docks76 : Le Cottage Family", "url": "https://www.booking.com/hotel/fr/kindarena-les-docks76-le-cottage-family.fr.html", "score": null, "rating_stars": "0.0", "latitude": "49.45256010", "longitude": "1.05922330"},
{"city": "Rouen", "name": "Rouen s\u00e9jour confort-Le d'Aur\u00e9villy", "url": "https://www.booking.com/hotel/fr/le-d-39-aurevilly-offre-decouverte-parking-gratuit.fr.html", "score": "8,9", "rating_stars": "0.0", "latitude": "49.43544617", "longitude": "1.08055038"},
{"city": "Rouen", "name": "Les Carmes", "url": "https://www.booking.com/hotel/fr/chambres-d-ha-tes-les-carmes.fr.html", "score": "8,4", "rating_stars": "0.0", "latitude": "49.44219136", "longitude": "1.09654337"},
{"city": "Rouen", "name": "Petit T2 hypercentre avec terrasse priv\u00e9e", "url": "https://www.booking.com/hotel/fr/petit-t2-hypercentre-avec-terrasse-privee.fr.html", "score": "8,2", "rating_stars": "0.0", "latitude": "49.44582960", "longitude": "1.09507780"},
{"city": "Rouen", "name": "Le Nid Douillet : Superbe Appartement + Jardin privatif", "url": "https://www.booking.com/hotel/fr/le-nid-douillet-superbe-appartement-jardin-privatif.fr.html", "score": "9,2", "rating_stars": "0.0", "latitude": "49.44230050", "longitude": "1.11010700"},
{"city": "Rouen", "name": "Black Cabane", "url": "https://www.booking.com/hotel/fr/black-cabane.fr.html", "score": "8,8", "rating_stars": "0.0", "latitude": "49.44266558", "longitude": "1.08052831"},
{"city": "Rouen", "name": "ROUEN centre ville Palais de Justice", "url": "https://www.booking.com/hotel/fr/rouen-centre-ville-palais-de-justice.fr.html", "score": "8,4", "rating_stars": "0.0", "latitude": "49.44123006", "longitude": "1.09083280"},
{"city": "Rouen", "name": "Studio Le Medicis - 4", "url": "https://www.booking.com/hotel/fr/studio-le-medicis-4.fr.html", "score": "8,1", "rating_stars": "0.0", "latitude": "49.44047820", "longitude": "1.08410250"},
{"city": "Rouen", "name": "Sous Les Nuages", "url": "https://www.booking.com/hotel/fr/sous-les-nuages.fr.html", "score": "8,1", "rating_stars": "0.0", "latitude": "49.44303210", "longitude": "1.08314310"},
{"city": "Rouen", "name": "Soleil d\u2019\u00e9t\u00e9", "url": "https://www.booking.com/hotel/fr/soleil-d-ete.fr.html", "score": "8,6", "rating_stars": "3.0", "latitude": "49.42179300", "longitude": "1.10684400"},
{"city": "Le Havre", "name": "ibis Styles Le Havre Centre", "url": "https://www.booking.com/hotel/fr/citotel-le-marly.fr.html", "score": "6,7", "rating_stars": "3.0", "latitude": "49.48849655", "longitude": "0.10734200"},
{"city": "Le Havre", "name": "Le sacr\u00e9 c\u0153ur bis -duplex 5pl", "url": "https://www.booking.com/hotel/fr/le-sacre-coeur-2.fr.html", "score": "8,0", "rating_stars": "0.0", "latitude": "49.51538257", "longitude": "0.12214579"},
{"city": "Le Havre", "name": "LH Appart", "url": "https://www.booking.com/hotel/fr/lh-appart.fr.html", "score": null, "rating_stars": "0.0", "latitude": "49.49662820", "longitude": "0.12226079"},
{"city": "Le Havre", "name": "Villa Rapha\u00eblle #6", "url": "https://www.booking.com/hotel/fr/villa-raphaelle-6.fr.html", "score": null, "rating_stars": "0.0", "latitude": "49.49727710", "longitude": "0.12303550"},
{"city": "Le Havre", "name": "Joli T2 Le Havre Graville", "url": "https://www.booking.com/hotel/fr/joli-t2-le-havre-graville.fr.html", "score": "8,0", "rating_stars": "0.0", "latitude": "49.50182920", "longitude": "0.15593720"},
{"city": "Le Havre", "name": "\u00d4 Palais de justice - 4 personnes", "url": "https://www.booking.com/hotel/fr/o-palais-de-justice-4-personnes.fr.html", "score": "8,1", "rating_stars": "0.0", "latitude": "49.49225848", "longitude": "0.11782084"},
{"city": "Le Havre", "name": "Dormir Au Havre (Casino)", "url": "https://www.booking.com/hotel/fr/dormir-au-havre.fr.html", "score": "7,3", "rating_stars": "0.0", "latitude": "49.49259348", "longitude": "0.11431853"},
{"city": "Le Havre", "name": "Le Perret", "url": "https://www.booking.com/hotel/fr/le-perret.fr.html", "score": "9,4", "rating_stars": "0.0", "latitude": "49.48625210", "longitude": "0.10334540"},
{"city": "Le Havre", "name": "Studio plage Le havre", "url": "https://www.booking.com/hotel/fr/studio-plage-le-havre.fr.html", "score": "7,0", "rating_stars": "0.0", "latitude": "49.49010900", "longitude": "0.10001900"},
{"city": "Le Havre", "name": "Studio de charme - Hyper centre", "url": "https://www.booking.com/hotel/fr/studio-cosy-le-havre.fr.html", "score": null, "rating_stars": "0.0", "latitude": "49.48562230", "longitude": "0.10635068"},
{"city": "Le Havre", "name": "Studio agr\u00e9able", "url": "https://www.booking.com/hotel/fr/studio-agreable-le-havre.fr.html", "score": "9,0", "rating_stars": "0.0", "latitude": "49.52019410", "longitude": "0.08379860"},
{"city": "Le Havre", "name": "LE MARITIME", "url": "https://www.booking.com/hotel/fr/le-maritime.fr.html", "score": "9,3", "rating_stars": "0.0", "latitude": "49.48546408", "longitude": "0.10549449"},
{"city": "Le Havre", "name": "appartement F2, 44 M2 \u00e0 200 m\u00e8tres de la plage", "url": "https://www.booking.com/hotel/fr/appartement-f2-44-m2-a-200-metres-de-la-plage.fr.html", "score": "8,7", "rating_stars": "0.0", "latitude": "49.49932100", "longitude": "0.09457700"},
{"city": "Le Havre", "name": "Zenitude H\u00f4tel-R\u00e9sidences Le Havre", "url": "https://www.booking.com/hotel/fr/appart-city-cap-affaires-le-havre.fr.html", "score": "6,6", "rating_stars": "3.0", "latitude": "49.50008887", "longitude": "0.14129341"},
{"city": "Le Havre", "name": "VIVEZ LE QUAI - St Francois - Notre Dame - PARKING", "url": "https://www.booking.com/hotel/fr/vivez-le-quai-st-francois-notre-dame-parking.fr.html", "score": "8,9", "rating_stars": "0.0", "latitude": "49.48700268", "longitude": "0.11095587"},
{"city": "Le Havre", "name": "Villa Rapha\u00eblle #1", "url": "https://www.booking.com/hotel/fr/villa-raphaelle-1-le-havre.fr.html", "score": "9,2", "rating_stars": "0.0", "latitude": "49.49727710", "longitude": "0.12303550"},
{"city": "Le Havre", "name": "L\u2019appart Duplex Bis", "url": "https://www.booking.com/hotel/fr/appart-duplex-bis.fr.html", "score": "8,8", "rating_stars": "0.0", "latitude": "49.49405770", "longitude": "0.11936320"},
{"city": "Le Havre", "name": "Hotel de Charme La Bonne Adresse", "url": "https://www.booking.com/hotel/fr/des-phares.fr.html", "score": "8,1", "rating_stars": "0.0", "latitude": "49.50318945", "longitude": "0.08882135"},
{"city": "Le Havre", "name": "Cosy \u00e0 Coty", "url": "https://www.booking.com/hotel/fr/cosy-a-coty.fr.html", "score": "9,1", "rating_stars": "0.0", "latitude": "49.49411560", "longitude": "0.11178000"},
{"city": "Le Havre", "name": "Le Petit Coeur", "url": "https://www.booking.com/hotel/fr/le-petit-coeur.fr.html", "score": "7,5", "rating_stars": "0.0", "latitude": "49.49389360", "longitude": "0.11560050"},
{"city": "Le Havre", "name": "La Cat\u00e8ne-Perret", "url": "https://www.booking.com/hotel/fr/la-catene-perret.fr.html", "score": "8,9", "rating_stars": "0.0", "latitude": "49.48595360", "longitude": "0.10902770"},
{"city": "Le Havre", "name": "MonHavre, Dauphine St Fran\u00e7ois, Bord de mer, WIFI, Fibre Orange", "url": "https://www.booking.com/hotel/fr/appartement-centre-mer-wifi.fr.html", "score": "9,0", "rating_stars": "0.0", "latitude": "49.48775099", "longitude": "0.11425347"},
{"city": "Le Havre", "name": "Mattilie \u00e0 COTY, plein centre ville,tout confort", "url": "https://www.booking.com/hotel/fr/mattilie-a-coty-plein-centre-ville-tout-confort.fr.html", "score": "8,6", "rating_stars": "0.0", "latitude": "49.49768430", "longitude": "0.11354450"},
{"city": "Le Havre", "name": "AU BORD DE L'EAU", "url": "https://www.booking.com/hotel/fr/au-bord-de-l-39-eau-le-havre.fr.html", "score": "8,5", "rating_stars": "0.0", "latitude": "49.48660560", "longitude": "0.10869450"},
{"city": "Bayeux", "name": "Le Grand Arbre", "url": "https://www.booking.com/hotel/fr/le-grand-arbre.fr.html", "score": "9,6", "rating_stars": "0.0", "latitude": "49.27335900", "longitude": "-0.69054330"},
{"city": "Bayeux", "name": "Ch\u00e2teau de la Ferri\u00e8re", "url": "https://www.booking.com/hotel/fr/chateau-de-la-ferriere.fr.html", "score": "9,6", "rating_stars": "0.0", "latitude": "49.30443677", "longitude": "-0.69898635"},
{"city": "Bayeux", "name": "Appartement Omaha Beach", "url": "https://www.booking.com/hotel/fr/appartement-omaha-beach-bayeux.fr.html", "score": "8,4", "rating_stars": "0.0", "latitude": "49.27466400", "longitude": "-0.70706730"},
{"city": "Bayeux", "name": "Hello Bayeux - Confort dans le coeur de la ville", "url": "https://www.booking.com/hotel/fr/hello-bayeux-confort-dans-le-coeur-de-la-ville.fr.html", "score": null, "rating_stars": "0.0", "latitude": "49.27734920", "longitude": "-0.70428290"},
{"city": "Bayeux", "name": "Le petit Valhalla", "url": "https://www.booking.com/hotel/fr/le-petit-valhalla.fr.html", "score": "9,3", "rating_stars": "0.0", "latitude": "49.27883719", "longitude": "-0.70080550"},
{"city": "Bayeux", "name": "Cam\u00e9lia", "url": "https://www.booking.com/hotel/fr/camelia-bayeux.fr.html", "score": "9,2", "rating_stars": "0.0", "latitude": "49.27392100", "longitude": "-0.69976000"},
{"city": "Bayeux", "name": "Hostellerie des Grands Chapeaux", "url": "https://www.booking.com/hotel/fr/hostellerie-des-grands-chapeaux.fr.html", "score": "7,7", "rating_stars": "0.0", "latitude": "49.27936100", "longitude": "-0.69900200"},
{"city": "Bayeux", "name": "Le Comble de l'Aure YourHostHelper", "url": "https://www.booking.com/hotel/fr/le-comble-de-l-aure-yourhosthelper.fr.html", "score": null, "rating_stars": "0.0", "latitude": "49.27721110", "longitude": "-0.70092660"},
{"city": "Bayeux", "name": "Large apartment for 6 people in Bayeux", "url": "https://www.booking.com/hotel/fr/grand-appartement-de-6-personnes-a-bayeux.fr.html", "score": "7,0", "rating_stars": "0.0", "latitude": "49.27688860", "longitude": "-0.70186430"},
{"city": "Bayeux", "name": "Mon Saint-Malo - APPART'HOTEL - Coeur de Bayeux", "url": "https://www.booking.com/hotel/fr/mon-saint-malo-appart-coeur-de-bayeux.fr.html", "score": null, "rating_stars": "0.0", "latitude": "49.27795540", "longitude": "-0.70509190"},
{"city": "Bayeux", "name": "Studio Juno Beach", "url": "https://www.booking.com/hotel/fr/studio-juno-beach.fr.html", "score": null, "rating_stars": "0.0", "latitude": "49.27465903", "longitude": "-0.70707245"},
{"city": "Bayeux", "name": "Le 4", "url": "https://www.booking.com/hotel/fr/le-4-bayeux.fr.html", "score": "9,4", "rating_stars": "0.0", "latitude": "49.27612713", "longitude": "-0.70589116"},
{"city": "Bayeux", "name": "Maison de ville, 2ch, La Petite Aure", "url": "https://www.booking.com/hotel/fr/maison-de-ville-2ch-la-petite-aure.fr.html", "score": "8,8", "rating_stars": "0.0", "latitude": "49.27735730", "longitude": "-0.69883150"},
{"city": "Bayeux", "name": "La Plus Petite Maison De France", "url": "https://www.booking.com/hotel/fr/tour-de-l-39-islet.fr.html", "score": "9,4", "rating_stars": "0.0", "latitude": "49.27661977", "longitude": "-0.70109993"},
{"city": "Bayeux", "name": "Maison centre Bayeux 5 chambres 10 personnes", "url": "https://www.booking.com/hotel/fr/maison-centre-bayeux-5-chambres-10-personnes.fr.html", "score": "8,5", "rating_stars": "0.0", "latitude": "49.27822530", "longitude": "-0.70231200"},
{"city": "Bayeux", "name": "Le Boh\u00e8me", "url": "https://www.booking.com/hotel/fr/le-boheme.fr.html", "score": null, "rating_stars": "0.0", "latitude": "49.27457517", "longitude": "-0.70555304"},
{"city": "Bayeux", "name": "appartement avec vue sur cath\u00e9drale class\u00e9 de tourisme 3 \u00e9toiles", "url": "https://www.booking.com/hotel/fr/appartement-avec-vue-sur-cathedrale.fr.html", "score": "8,8", "rating_stars": "0.0", "latitude": "49.27484490", "longitude": "-0.69927780"},
{"city": "Bayeux", "name": "La Paresse en Ville", "url": "https://www.booking.com/hotel/fr/la-paresse-en-ville.fr.html", "score": "9,5", "rating_stars": "0.0", "latitude": "49.28573500", "longitude": "-0.71582400"},
{"city": "Bayeux", "name": "DOMAINE DU GRAND CAUGY", "url": "https://www.booking.com/hotel/fr/domaine-du-grand-caugy.fr.html", "score": "8,8", "rating_stars": "0.0", "latitude": "49.28256300", "longitude": "-0.67736300"},
{"city": "Bayeux", "name": "Chez Titi", "url": "https://www.booking.com/hotel/fr/chez-titi.fr.html", "score": "8,7", "rating_stars": "0.0", "latitude": "49.27611885", "longitude": "-0.70412572"},
{"city": "Bayeux", "name": "Cosy Apartment in Bayeux with Heating Facility", "url": "https://www.booking.com/hotel/fr/cosy-apartment-in-bayeux-with-heating-facility.fr.html", "score": null, "rating_stars": "0.0", "latitude": "49.28153500", "longitude": "-0.70136000"},
{"city": "Bayeux", "name": "Maison tr\u00e8s beau jardin 10 mn a pied centre ville Bayeux proche plages du d\u00e9barquement", "url": "https://www.booking.com/hotel/fr/maison-tres-beau-jardin-10-mn-a-pied-de-cathedrale.fr.html", "score": "9,2", "rating_stars": "0.0", "latitude": "49.27788340", "longitude": "-0.71405540"},
{"city": "Bayeux", "name": "Le Cocon", "url": "https://www.booking.com/hotel/fr/le-cocon-bayeux1.fr.html", "score": "8,8", "rating_stars": "0.0", "latitude": "49.27456678", "longitude": "-0.70552890"},
{"city": "Bayeux", "name": "Studio cocooning au pied de la Cath\u00e9drale Bayeux", "url": "https://www.booking.com/hotel/fr/studio-cocooning-au-pied-de-la-cathedrale-bayeux.fr.html", "score": "8,9", "rating_stars": "0.0", "latitude": "49.27457440", "longitude": "-0.70222610"},
{"city": "St Malo", "name": "Zen et design, proche Cit\u00e9 Corsaire", "url": "https://www.booking.com/hotel/fr/tres-bel-appartement-t3-spacieux-et-calme.fr.html", "score": "9,1", "rating_stars": "3.0", "latitude": "48.64638820", "longitude": "-2.00860960"},
{"city": "St Malo", "name": "Intra Muros Vue Mer", "url": "https://www.booking.com/hotel/fr/intra-muros-vue-mer.fr.html", "score": "8,6", "rating_stars": "0.0", "latitude": "48.64891971", "longitude": "-2.02789513"},
{"city": "St Malo", "name": "Hotel Elizabeth", "url": "https://www.booking.com/hotel/fr/elizabeth.fr.html", "score": "7,8", "rating_stars": "3.0", "latitude": "48.64764755", "longitude": "-2.02431947"},
{"city": "St Malo", "name": "Le Doris by Cocoonr", "url": "https://www.booking.com/hotel/fr/le-doris-saint-malo.fr.html", "score": "9,0", "rating_stars": "0.0", "latitude": "48.63868770", "longitude": "-2.01114440"},
{"city": "St Malo", "name": "Auberge de Jeunesse Ethic \u00e9tapes Saint Malo", "url": "https://www.booking.com/hotel/fr/auberge-de-jeunesse-ethic-etapes-saint-malo.fr.html", "score": "7,5", "rating_stars": "0.0", "latitude": "48.65858500", "longitude": "-1.99270700"},
{"city": "St Malo", "name": "Hotel Brasserie Armoricaine", "url": "https://www.booking.com/hotel/fr/brasserie-armoricaine.fr.html", "score": "8,5", "rating_stars": "2.0", "latitude": "48.64881300", "longitude": "-2.02744100"},
{"city": "St Malo", "name": "Alpha Ocean", "url": "https://www.booking.com/hotel/fr/alpha-ocean.fr.html", "score": "7,4", "rating_stars": "2.0", "latitude": "48.66336719", "longitude": "-1.98954195"},
{"city": "St Malo", "name": "Puits aux braies, 3*, Saint Malo Intra-Muros", "url": "https://www.booking.com/hotel/fr/puits-aux-braies-3-saint-malo-intra-muros.fr.html", "score": "8,1", "rating_stars": "4.0", "latitude": "48.64890000", "longitude": "-2.02553000"},
{"city": "St Malo", "name": "Apartment, St Malo", "url": "https://www.booking.com/hotel/fr/holiday-flat-st-malo.fr.html", "score": null, "rating_stars": "0.0", "latitude": "48.65874000", "longitude": "-1.97702800"},
{"city": "St Malo", "name": "Manoir de la Baronnie", "url": "https://www.booking.com/hotel/fr/manoir-de-la-baronnerie.fr.html", "score": "8,4", "rating_stars": "0.0", "latitude": "48.62254478", "longitude": "-1.99625552"},
{"city": "St Malo", "name": "R\u00e9sidence Neptunia", "url": "https://www.booking.com/hotel/fr/residence-neptunia.fr.html", "score": "8,9", "rating_stars": "2.0", "latitude": "48.65770146", "longitude": "-1.99967265"},
{"city": "St Malo", "name": "R\u00e9sidence Le Roc Fleuri", "url": "https://www.booking.com/hotel/fr/ra-c-sidence-le-roc-fleuri.fr.html", "score": "8,9", "rating_stars": "0.0", "latitude": "48.66056984", "longitude": "-1.99187011"},
{"city": "St Malo", "name": "La Conchee", "url": "https://www.booking.com/hotel/fr/la-conchee.fr.html", "score": "9,4", "rating_stars": "0.0", "latitude": "48.67741279", "longitude": "-1.98646032"},
{"city": "St Malo", "name": "chambre d'h\u00f4te et g\u00eete du jardin des corsaires", "url": "https://www.booking.com/hotel/fr/le-jardin-des-corsaires.fr.html", "score": "9,4", "rating_stars": "0.0", "latitude": "48.64579200", "longitude": "-1.98279300"},
{"city": "St Malo", "name": "Coetquen", "url": "https://www.booking.com/hotel/fr/coetquen.fr.html", "score": "8,8", "rating_stars": "0.0", "latitude": "48.61859340", "longitude": "-2.00520550"},
{"city": "St Malo", "name": "Little Hamaca", "url": "https://www.booking.com/hotel/fr/little-hamaca-key-ouest.fr.html", "score": "8,6", "rating_stars": "0.0", "latitude": "48.65304130", "longitude": "-2.01176560"},
{"city": "St Malo", "name": "The Originals City, H\u00f4tel Belem, Saint-Malo", "url": "https://www.booking.com/hotel/fr/belem.fr.html", "score": "7,6", "rating_stars": "3.0", "latitude": "48.61671487", "longitude": "-1.98199421"},
{"city": "St Malo", "name": "H\u00f4tel Gambetta", "url": "https://www.booking.com/hotel/fr/ha-tel-gambetta.fr.html", "score": "8,2", "rating_stars": "0.0", "latitude": "48.65559303", "longitude": "-1.99378520"},
{"city": "St Malo", "name": "Rochebonne Plage", "url": "https://www.booking.com/hotel/fr/villa-rochebonne-plage.fr.html", "score": "7,5", "rating_stars": "2.0", "latitude": "48.66526291", "longitude": "-1.98636834"},
{"city": "St Malo", "name": "Rance Solidor", "url": "https://www.booking.com/hotel/fr/rance-solidor.fr.html", "score": "8,8", "rating_stars": "0.0", "latitude": "48.63459320", "longitude": "-2.02522354"},
{"city": "St Malo", "name": "Domaine De La Bastille", "url": "https://www.booking.com/hotel/fr/domaine-de-la-bastille.fr.html", "score": "8,4", "rating_stars": "0.0", "latitude": "48.66806358", "longitude": "-1.97044998"},
{"city": "St Malo", "name": "Appartements des Marins", "url": "https://www.booking.com/hotel/fr/appartements-des-marins.fr.html", "score": "8,5", "rating_stars": "0.0", "latitude": "48.64891000", "longitude": "-2.02491600"},
{"city": "St Malo", "name": "La Cordee by Cocoonr", "url": "https://www.booking.com/hotel/fr/la-cordee-saint-malo.fr.html", "score": "9,2", "rating_stars": "0.0", "latitude": "48.64795607", "longitude": "-2.02716374"},
{"city": "St Malo", "name": "H\u00f4tel et Appart\u2019h\u00f4tel L'Adresse", "url": "https://www.booking.com/hotel/fr/adresse.fr.html", "score": "8,9", "rating_stars": "4.0", "latitude": "48.65210596", "longitude": "-2.01712310"},
{"city": "Mont Saint Michel", "name": "ibis Pontorson Baie Du Mont Saint Michel", "url": "https://www.booking.com/hotel/fr/ibis-pontorson-baie-du-mont-saint-michel.fr.html", "score": "8,2", "rating_stars": "3.0", "latitude": "48.57154900", "longitude": "-1.54312700"},
{"city": "Mont Saint Michel", "name": "H\u00e9bergements situ\u00e9s \u00e0 6 kms du Mont Saint Michel", "url": "https://www.booking.com/hotel/fr/maison-situee-a-6-kms-du-mont-saint-michel-tanis.fr.html", "score": "9,2", "rating_stars": "0.0", "latitude": "48.57745888", "longitude": "-1.44966947"},
{"city": "Mont Saint Michel", "name": "Vacanc\u00e9ole - Le Domaine du Mont - Mont St Michel", "url": "https://www.booking.com/hotel/fr/et-residence-club-mmv-le-domaine-du-mont.fr.html", "score": "7,5", "rating_stars": "3.0", "latitude": "48.59352509", "longitude": "-1.59637034"},
{"city": "Mont Saint Michel", "name": "Gites Ferme de la Baie", "url": "https://www.booking.com/hotel/fr/gites-ferme-de-la-baie.fr.html", "score": "9,0", "rating_stars": "0.0", "latitude": "48.58168152", "longitude": "-1.57171145"},
{"city": "Mont Saint Michel", "name": "G\u00eetes Bellevue et Mascaret", "url": "https://www.booking.com/hotel/fr/bellevue-courtils.fr.html", "score": "8,5", "rating_stars": "0.0", "latitude": "48.62952096", "longitude": "-1.41309681"},
{"city": "Mont Saint Michel", "name": "Jacuzzi int\u00e9rieur privatif illimit\u00e9", "url": "https://www.booking.com/hotel/fr/des-bulles-au-mont-saint-michel.fr.html", "score": null, "rating_stars": "0.0", "latitude": "48.57565754", "longitude": "-1.50547224"},
{"city": "Mont Saint Michel", "name": "Les 3 m\u00f4mes", "url": "https://www.booking.com/hotel/fr/les-3-momes.fr.html", "score": null, "rating_stars": "0.0", "latitude": "48.57583110", "longitude": "-1.50570499"},
{"city": "Mont Saint Michel", "name": "G\u00eete de la Cuve", "url": "https://www.booking.com/hotel/fr/gite-de-la-cuve-huisnes-sur-mer.fr.html", "score": "9,1", "rating_stars": "0.0", "latitude": "48.61561741", "longitude": "-1.42961897"},
{"city": "Mont Saint Michel", "name": "Les Voiles Vertes", "url": "https://www.booking.com/hotel/fr/les-voiles-vertes.fr.html", "score": "9,2", "rating_stars": "0.0", "latitude": "48.57593350", "longitude": "-1.51269878"},
{"city": "Mont Saint Michel", "name": "G\u00eete Le Desire", "url": "https://www.booking.com/hotel/fr/gite-le-desire.fr.html", "score": "9,4", "rating_stars": "0.0", "latitude": "48.59280417", "longitude": "-1.44410010"},
{"city": "Mont Saint Michel", "name": "Holiday Home La Long\u00e8re - SNA400", "url": "https://www.booking.com/hotel/fr/ferienhaus-st-leonard-vains-400s.fr.html", "score": null, "rating_stars": "0.0", "latitude": "48.67053791", "longitude": "-1.44184291"},
{"city": "Mont Saint Michel", "name": "Gite Le Mascaret", "url": "https://www.booking.com/hotel/fr/gite-le-mascaret.fr.html", "score": "8,9", "rating_stars": "0.0", "latitude": "48.60646125", "longitude": "-1.58795357"},
{"city": "Mont Saint Michel", "name": "G\u00eete Evanez Mont-saint-Michel", "url": "https://www.booking.com/hotel/fr/gite-evanez-mont-saint-michel.fr.html", "score": null, "rating_stars": "0.0", "latitude": "48.57563833", "longitude": "-1.50549267"},
{"city": "Mont Saint Michel", "name": "G\u00eete Baie Bonheur", "url": "https://www.booking.com/hotel/fr/gite-baie-bonheur-genets.fr.html", "score": null, "rating_stars": "0.0", "latitude": "48.68464037", "longitude": "-1.47356448"},
{"city": "Mont Saint Michel", "name": "St Michel", "url": "https://www.booking.com/hotel/fr/st-michel-vains.fr.html", "score": "9,0", "rating_stars": "0.0", "latitude": "48.67083920", "longitude": "-1.44120750"},
{"city": "Mont Saint Michel", "name": "La Vieille Foulonni\u00e8re : Chambres d'h\u00f4tes & Permaculture", "url": "https://www.booking.com/hotel/fr/la-vieille-foulonniere-chambres-d-39-hotes-amp-permaculture.fr.html", "score": "9,2", "rating_stars": "0.0", "latitude": "48.58595100", "longitude": "-1.47875000"},
{"city": "Mont Saint Michel", "name": "Le Charleston", "url": "https://www.booking.com/hotel/fr/le-charleston-huisnes-sur-mer.fr.html", "score": "8,9", "rating_stars": "0.0", "latitude": "48.60725320", "longitude": "-1.43358490"},
{"city": "Mont Saint Michel", "name": "gite des amoureux la tani\u00e8re", "url": "https://www.booking.com/hotel/fr/gite-des-amoureux-la-taniere.fr.html", "score": "7,8", "rating_stars": "0.0", "latitude": "48.58023080", "longitude": "-1.51319240"},
{"city": "Mont Saint Michel", "name": "Le Clos Saint Gilles", "url": "https://www.booking.com/hotel/fr/le-clos-saint-gilles-pontorson.fr.html", "score": "9,5", "rating_stars": "0.0", "latitude": "48.59067584", "longitude": "-1.46618150"},
{"city": "Mont Saint Michel", "name": "Gite Couesnon", "url": "https://www.booking.com/hotel/fr/blier.fr.html", "score": "9,0", "rating_stars": "0.0", "latitude": "48.60638809", "longitude": "-1.58764243"},
{"city": "Mont Saint Michel", "name": "homedelabaie", "url": "https://www.booking.com/hotel/fr/1-route-du-beau-douaire-moidrey-homedelabaie.fr.html", "score": "7,7", "rating_stars": "0.0", "latitude": "48.57562140", "longitude": "-1.50753320"},
{"city": "Mont Saint Michel", "name": "Le Cezembre g\u00eete la Taniere", "url": "https://www.booking.com/hotel/fr/le-cezembre-moidrey.fr.html", "score": "8,0", "rating_stars": "0.0", "latitude": "48.58101415", "longitude": "-1.51209801"},
{"city": "Mont Saint Michel", "name": "Le Polder", "url": "https://www.booking.com/hotel/fr/le-polder.fr.html", "score": "8,6", "rating_stars": "0.0", "latitude": "48.60649382", "longitude": "-1.58801040"},
{"city": "Mont Saint Michel", "name": "Les G\u00eetes du Couesnon", "url": "https://www.booking.com/hotel/fr/les-ga-r-tes-du-couesnon.fr.html", "score": "9,6", "rating_stars": "3.0", "latitude": "48.57640882", "longitude": "-1.51440342"},
{"city": "Amiens", "name": "un Nid en Ville-a Nest in Town -AMIENS-class\u00e9 3 \u00e9toiles", "url": "https://www.booking.com/hotel/fr/un-nid-en-ville-a-nest-in-town-amiens.fr.html", "score": "9,5", "rating_stars": "0.0", "latitude": "49.89110060", "longitude": "2.29393010"},
{"city": "Amiens", "name": "Jules Verne", "url": "https://www.booking.com/hotel/fr/teu-39-voir-amiens.fr.html", "score": "8,8", "rating_stars": "0.0", "latitude": "49.88645800", "longitude": "2.29986000"},
{"city": "Amiens", "name": "Au Coeur d'Amiens", "url": "https://www.booking.com/hotel/fr/maison-au-coeur-de-la-ville-amiens1.fr.html", "score": "9,5", "rating_stars": "0.0", "latitude": "49.89615530", "longitude": "2.30636810"},
{"city": "Amiens", "name": "Le Jules Verne, avec Terrasse et Salle de sport", "url": "https://www.booking.com/hotel/fr/le-jules-verne-terrasse.fr.html", "score": "9,5", "rating_stars": "0.0", "latitude": "49.88551930", "longitude": "2.29436240"},
{"city": "Amiens", "name": "Grey's amienoise", "url": "https://www.booking.com/hotel/fr/grey-39-s-amienoise.fr.html", "score": "8,4", "rating_stars": "0.0", "latitude": "49.90524950", "longitude": "2.28697940"},
{"city": "Amiens", "name": "LES GRENOUILLES", "url": "https://www.booking.com/hotel/fr/les-grenouilles-amiens.fr.html", "score": "9,0", "rating_stars": "0.0", "latitude": "49.89610250", "longitude": "2.31078990"},
{"city": "Amiens", "name": "Maison Famille/T\u00e9l\u00e9travail/Belle vue -direct Paris", "url": "https://www.booking.com/hotel/fr/maison-famille-47-teletravail-47-belle-vue-direct-paris.fr.html", "score": "9,1", "rating_stars": "0.0", "latitude": "49.90062900", "longitude": "2.31343173"},
{"city": "Amiens", "name": "Cosy Studio Amiens", "url": "https://www.booking.com/hotel/fr/cosy-studio-amiens.fr.html", "score": "8,5", "rating_stars": "0.0", "latitude": "49.89577928", "longitude": "2.28937300"},
{"city": "Amiens", "name": "Appartement Cosy 1 Amiens", "url": "https://www.booking.com/hotel/fr/appartement-cosy-amiens.fr.html", "score": "8,3", "rating_stars": "0.0", "latitude": "49.88881000", "longitude": "2.28467300"},
{"city": "Amiens", "name": "Super studio au pied de la cath\u00e9drale", "url": "https://www.booking.com/hotel/fr/super-studio-au-pied-de-la-cathedrale.fr.html", "score": "8,9", "rating_stars": "0.0", "latitude": "49.89437694", "longitude": "2.30155719"},
{"city": "Amiens", "name": "L'ESCALE DETENTE", "url": "https://www.booking.com/hotel/fr/escale-detente.fr.html", "score": null, "rating_stars": "0.0", "latitude": "49.87197030", "longitude": "2.30489270"},
{"city": "Amiens", "name": "appartements proche gare", "url": "https://www.booking.com/hotel/fr/appartement-proche-gare-amiens.fr.html", "score": "9,0", "rating_stars": "0.0", "latitude": "49.89246800", "longitude": "2.30527310"},
{"city": "Amiens", "name": "APPART COSY TOUT CONFORT CENTRE VILLE 3 PERSONNES", "url": "https://www.booking.com/hotel/fr/appart-cosy-tout-confort-centre-ville-3-personnes.fr.html", "score": "8,5", "rating_stars": "0.0", "latitude": "49.88889340", "longitude": "2.28837950"},
{"city": "Amiens", "name": "L'Escale 80", "url": "https://www.booking.com/hotel/fr/l-39-escale-80.fr.html", "score": "9,2", "rating_stars": "3.0", "latitude": "49.89641893", "longitude": "2.30637031"},
{"city": "Amiens", "name": "Le Duplex Amiens Centre", "url": "https://www.booking.com/hotel/fr/le-duplex-amiens-centre.fr.html", "score": "7,6", "rating_stars": "0.0", "latitude": "49.89201370", "longitude": "2.28605590"},
{"city": "Rouen", "name": "Refait \u00e0 neuf dans centre historique & rue pi\u00e9tonne", "url": "https://www.booking.com/hotel/fr/refait-a-neuf-dans-centre-historique-amp-rue-pietonne.fr.html", "score": "8,0", "rating_stars": "0.0", "latitude": "49.44298900", "longitude": "1.09586250"},
{"city": "Rouen", "name": "Rouen ECO Lodges", "url": "https://www.booking.com/hotel/fr/plus-belle-la-vue-bois-guillaume.fr.html", "score": "8,6", "rating_stars": "0.0", "latitude": "49.45751538", "longitude": "1.09975319"},
{"city": "Rouen", "name": "Superbe appartement dans le quartier de la gare", "url": "https://www.booking.com/hotel/fr/le-rive-droite-rouen.fr.html", "score": "9,5", "rating_stars": "0.0", "latitude": "49.44850270", "longitude": "1.09623344"},
{"city": "Rouen", "name": "Rouen Cath\u00e9drale", "url": "https://www.booking.com/hotel/fr/rouen-cathedrale.fr.html", "score": "8,5", "rating_stars": "0.0", "latitude": "49.43777500", "longitude": "1.09475900"},
{"city": "Rouen", "name": "Le Carr\u00e9 Rouennais - Appart'H\u00f4tel Rouen Gare", "url": "https://www.booking.com/hotel/fr/le-carre-rouennais.fr.html", "score": "9,0", "rating_stars": "0.0", "latitude": "49.45137780", "longitude": "1.09229250"},
{"city": "Rouen", "name": "Petit studio confortable pour une personne", "url": "https://www.booking.com/hotel/fr/petit-studio-confortable-pour-une-personne.fr.html", "score": null, "rating_stars": "0.0", "latitude": "49.45471300", "longitude": "1.09508900"},
{"city": "Rouen", "name": "ibis Rouen Centre Rive Droite", "url": "https://www.booking.com/hotel/fr/ibis-rouen-centre-rive-droite.fr.html", "score": "7,5", "rating_stars": "3.0", "latitude": "49.44318544", "longitude": "1.07911371"},
{"city": "Rouen", "name": "Le Carrel Saint Marc", "url": "https://www.booking.com/hotel/fr/le-carrel-saint-marc.fr.html", "score": "7,3", "rating_stars": "0.0", "latitude": "49.43755450", "longitude": "1.10054210"},
{"city": "Rouen", "name": "HYGGE - Superbe Apt r\u00e9nov\u00e9 Rouen Gare avec parking privatif", "url": "https://www.booking.com/hotel/fr/hygge-appart-rouen-gare-avec-parking-privatif.fr.html", "score": "9,3", "rating_stars": "0.0", "latitude": "49.45011586", "longitude": "1.09254613"},
{"city": "Rouen", "name": "Logement entier - Centre historique - Rue calme", "url": "https://www.booking.com/hotel/fr/logement-entier-centre-historique-rue-calme.fr.html", "score": "7,1", "rating_stars": "0.0", "latitude": "49.44165240", "longitude": "1.08582300"},
{"city": "Rouen", "name": "Bel appartement dans le centre historique de Rouen", "url": "https://www.booking.com/hotel/fr/bel-appartement-dans-le-centre-historique-de-rouen.fr.html", "score": "8,6", "rating_stars": "0.0", "latitude": "49.44414680", "longitude": "1.09064740"},
{"city": "Rouen", "name": "F3 AVEC PARKING ROUEN COTE DOCK76", "url": "https://www.booking.com/hotel/fr/f3-avec-parking-rouen-cote-dock76.fr.html", "score": "9,7", "rating_stars": "0.0", "latitude": "49.45387630", "longitude": "1.05571220"},
{"city": "Rouen", "name": "APPARTEMENT Deux chambres Salon Parking Rouen Kindarena", "url": "https://www.booking.com/hotel/fr/appartement-t3-docks-parking.fr.html", "score": "7,1", "rating_stars": "0.0", "latitude": "49.45466480", "longitude": "1.05503060"},
{"city": "Rouen", "name": "Mini studio 9m2", "url": "https://www.booking.com/hotel/fr/mini-studio-9m2.fr.html", "score": "3,0", "rating_stars": "0.0", "latitude": "49.44234220", "longitude": "1.08443050"},
{"city": "Rouen", "name": "studio de charme", "url": "https://www.booking.com/hotel/fr/studio-de-charme-rouen.fr.html", "score": "7,7", "rating_stars": "0.0", "latitude": "49.44592180", "longitude": "1.08844230"},
{"city": "Rouen", "name": "Le Campulley", "url": "https://www.booking.com/hotel/fr/le-campulley.fr.html", "score": null, "rating_stars": "0.0", "latitude": "49.44900200", "longitude": "1.09046600"},
{"city": "Rouen", "name": "Logis Saint Eloi", "url": "https://www.booking.com/hotel/fr/logis-saint-eloi.fr.html", "score": "8,5", "rating_stars": "0.0", "latitude": "49.44201599", "longitude": "1.08723829"},
{"city": "Rouen", "name": "Cosy'Appart - LE GERVAIS", "url": "https://www.booking.com/hotel/fr/cosy-appart-le-gervais.fr.html", "score": "8,5", "rating_stars": "0.0", "latitude": "49.44621076", "longitude": "1.08646931"},
{"city": "Rouen", "name": "Comfort Hotel Rouen Alba", "url": "https://www.booking.com/hotel/fr/albarouen.fr.html", "score": "7,2", "rating_stars": "2.0", "latitude": "49.43844769", "longitude": "1.09431311"},
{"city": "Rouen", "name": "Cocon entre GareSNCF et VieuxMarch\u00e9, refait \u00e0 neuf", "url": "https://www.booking.com/hotel/fr/cocon-entre-garesncf-et-vieuxmarche-refait-a-neuf.fr.html", "score": "7,9", "rating_stars": "0.0", "latitude": "49.44560360", "longitude": "1.09029580"},
{"city": "Rouen", "name": "Astrid", "url": "https://www.booking.com/hotel/fr/hotelastrid_rouen.fr.html", "score": "6,4", "rating_stars": "0.0", "latitude": "49.44830636", "longitude": "1.09381422"},
{"city": "Rouen", "name": "Novotel Suites Rouen Normandie", "url": "https://www.booking.com/hotel/fr/suitehotel-rouen-normandie.fr.html", "score": "7,9", "rating_stars": "4.0", "latitude": "49.44313922", "longitude": "1.07542634"},
{"city": "Rouen", "name": "Le First, centre ville terrasse et parking", "url": "https://www.booking.com/hotel/fr/the-first.fr.html", "score": "9,4", "rating_stars": "0.0", "latitude": "49.44602520", "longitude": "1.08323050"},
{"city": "Rouen", "name": "Le 4B - Le Tiki", "url": "https://www.booking.com/hotel/fr/le-4b-mathilde.fr.html", "score": "9,2", "rating_stars": "0.0", "latitude": "49.44654520", "longitude": "1.09290320"},
{"city": "Rouen", "name": "CosyRouen Gare", "url": "https://www.booking.com/hotel/fr/cosy-rouen.fr.html", "score": "7,7", "rating_stars": "0.0", "latitude": "49.45286500", "longitude": "1.09568700"},
{"city": "Le Havre", "name": "AU BORD DE L'EAU", "url": "https://www.booking.com/hotel/fr/au-bord-de-l-39-eau-le-havre.fr.html", "score": "8,5", "rating_stars": "0.0", "latitude": "49.48660560", "longitude": "0.10869450"},
{"city": "Le Havre", "name": "L'Escale Meubl\u00e9 Touristique", "url": "https://www.booking.com/hotel/fr/meuble-tourisme-le-havre.fr.html", "score": "7,8", "rating_stars": "0.0", "latitude": "49.49006900", "longitude": "0.10558900"},
{"city": "Le Havre", "name": "Appartement vintage sous les toits", "url": "https://www.booking.com/hotel/fr/appartement-vintage-sous-les-toits.fr.html", "score": "8,8", "rating_stars": "0.0", "latitude": "49.49975420", "longitude": "0.12728150"},
{"city": "Le Havre", "name": "L\u2019havrais d\u00e9tente", "url": "https://www.booking.com/hotel/fr/havrais-detente.fr.html", "score": "9,5", "rating_stars": "0.0", "latitude": "49.50582520", "longitude": "0.10188150"},
{"city": "Le Havre", "name": "Vivez La vue mer - Port de plaisance - Plage", "url": "https://www.booking.com/hotel/fr/vivez-la-vue-mer-port-de-plaisance-plage.fr.html", "score": "10", "rating_stars": "0.0", "latitude": "49.48794455", "longitude": "0.09892914"},
{"city": "Le Havre", "name": "Logement Calme au Havre", "url": "https://www.booking.com/hotel/fr/studio-calme-le-havre.fr.html", "score": null, "rating_stars": "0.0", "latitude": "49.49792380", "longitude": "0.12236480"},
{"city": "Le Havre", "name": "Boutique Hotel d'Angleterre Le Havre", "url": "https://www.booking.com/hotel/fr/comfort-d-angleterre.fr.html", "score": "7,0", "rating_stars": "3.0", "latitude": "49.49404915", "longitude": "0.09936646"},
{"city": "Le Havre", "name": "Les chambres du Chat Perch\u00e9", "url": "https://www.booking.com/hotel/fr/les-chambres-du-chat-perche.fr.html", "score": "9,6", "rating_stars": "0.0", "latitude": "49.49948951", "longitude": "0.10641825"},
{"city": "Le Havre", "name": "Appartement COSY - City Center", "url": "https://www.booking.com/hotel/fr/appartement-cosy-city-center.fr.html", "score": "8,9", "rating_stars": "0.0", "latitude": "49.48948500", "longitude": "0.11209020"},
{"city": "Le Havre", "name": "Appartement cosy, H\u00f4tel de ville", "url": "https://www.booking.com/hotel/fr/appartement-cosy-de-ville.fr.html", "score": null, "rating_stars": "0.0", "latitude": "49.49872170", "longitude": "0.10741390"},
{"city": "Le Havre", "name": "les Hallettes du havre", "url": "https://www.booking.com/hotel/fr/les-hallettes-du-havre.fr.html", "score": "8,4", "rating_stars": "0.0", "latitude": "49.48918640", "longitude": "0.10641710"},
{"city": "Le Havre", "name": "Le charme de l ancien entre mer et ville", "url": "https://www.booking.com/hotel/fr/le-charme-de-l-ancien-entre-mer-et-ville.fr.html", "score": "9,0", "rating_stars": "0.0", "latitude": "49.49629630", "longitude": "0.09922780"},
{"city": "Le Havre", "name": "H\u00f4tel Les Gens De Mer Le Havre by Popinns", "url": "https://www.booking.com/hotel/fr/les-gens-de-mer-le-havre.fr.html", "score": "6,5", "rating_stars": "2.0", "latitude": "49.48991830", "longitude": "0.10338306"},
{"city": "Le Havre", "name": "Les pieds dans l'eau 60m2- Vue mer - Garage privatif", "url": "https://www.booking.com/hotel/fr/les-pieds-dans-l-eau-plage.fr.html", "score": "8,9", "rating_stars": "0.0", "latitude": "49.49596950", "longitude": "0.09504450"},
{"city": "Le Havre", "name": "Appartement plein centre proche Gare", "url": "https://www.booking.com/hotel/fr/entree-des-artistes-le-havre.fr.html", "score": "8,5", "rating_stars": "0.0", "latitude": "49.49986310", "longitude": "0.13246350"},
{"city": "Le Havre", "name": "Franciscopolis - Terrasse ext\u00e9rieure - 4 pers", "url": "https://www.booking.com/hotel/fr/franciscopolis-terrasse-exterieure-4-pers.fr.html", "score": "6,8", "rating_stars": "0.0", "latitude": "49.48740110", "longitude": "0.11293280"},
{"city": "Le Havre", "name": "L'appart Duplex", "url": "https://www.booking.com/hotel/fr/l-39-appart-duplex.fr.html", "score": "8,9", "rating_stars": "0.0", "latitude": "49.49406111", "longitude": "0.11930112"},
{"city": "Le Havre", "name": "Appartement COSY 2 chambres quartier Danton", "url": "https://www.booking.com/hotel/fr/appartement-cosy-2-chambres-quartier-danton.fr.html", "score": "9,0", "rating_stars": "0.0", "latitude": "49.49353780", "longitude": "0.12313590"},
{"city": "Le Havre", "name": "T2 Cosy 4 Pers Max Centre ville & Parking & Wifi fibre", "url": "https://www.booking.com/hotel/fr/t2-cosy-4-pers-max-centre-ville-amp-parking-amp-wifi-fibre.fr.html", "score": "8,6", "rating_stars": "0.0", "latitude": "49.48747500", "longitude": "0.10653830"},
{"city": "Le Havre", "name": "Studio La Perle Noire plein centre, ruelle calme", "url": "https://www.booking.com/hotel/fr/studio-la-perle-noire-plein-centre-ruelle-calme.fr.html", "score": "8,8", "rating_stars": "0.0", "latitude": "49.49384511", "longitude": "0.11545019"},
{"city": "Le Havre", "name": "PETITE MAISON F1 CHEZ L'HABITANT", "url": "https://www.booking.com/hotel/fr/petite-maison-f1-chez-l-39-habitant.fr.html", "score": null, "rating_stars": "0.0", "latitude": "49.51225216", "longitude": "0.11279501"},
{"city": "Le Havre", "name": "Appartement\u2026LH center / 6 pers. parking priv\u00e9", "url": "https://www.booking.com/hotel/fr/appartement-lh-center-47-6-pers-parking-prive.fr.html", "score": "8,8", "rating_stars": "0.0", "latitude": "49.49266740", "longitude": "0.10495120"},
{"city": "Le Havre", "name": "Novotel Le Havre Centre Gare", "url": "https://www.booking.com/hotel/fr/novotellehavre.fr.html", "score": "7,6", "rating_stars": "4.0", "latitude": "49.49160831", "longitude": "0.12526989"},
{"city": "Le Havre", "name": "R\u00e9sidence La Fr\u00e9gate", "url": "https://www.booking.com/hotel/fr/residence-la-fregate.fr.html", "score": "6,9", "rating_stars": "0.0", "latitude": "49.49342197", "longitude": "0.13021991"},
{"city": "Le Havre", "name": "G\u00eete Notre Dame", "url": "https://www.booking.com/hotel/fr/gite-notre-dame-le-havre.fr.html", "score": "8,7", "rating_stars": "3.0", "latitude": "49.48660380", "longitude": "0.10716610"},
{"city": "Bayeux", "name": "Appartement Cam\u00e9lia Bayeux centre-ville", "url": "https://www.booking.com/hotel/fr/appartement-camelia-bayeux-centre-ville.fr.html", "score": "8,6", "rating_stars": "0.0", "latitude": "49.27993650", "longitude": "-0.71098927"},
{"city": "Bayeux", "name": "WELCOME Bayeux", "url": "https://www.booking.com/hotel/fr/94-rue-saint-jean.fr.html", "score": "9,3", "rating_stars": "0.0", "latitude": "49.27560730", "longitude": "-0.69762050"},
{"city": "Bayeux", "name": "Appartement Bayeux", "url": "https://www.booking.com/hotel/fr/appartement-bayeux.fr.html", "score": "9,6", "rating_stars": "0.0", "latitude": "49.27632000", "longitude": "-0.69923700"},
{"city": "Bayeux", "name": "La Citadine", "url": "https://www.booking.com/hotel/fr/la-citadine.fr.html", "score": "9,6", "rating_stars": "0.0", "latitude": "49.28006400", "longitude": "-0.70907700"},
{"city": "Bayeux", "name": "Croissant de Lune - C\u0153ur de Ville - Old Town", "url": "https://www.booking.com/hotel/fr/croissant-de-lune-coeur-de-ville-old-town.fr.html", "score": null, "rating_stars": "0.0", "latitude": "49.27659810", "longitude": "-0.69905130"},
{"city": "Bayeux", "name": "Maison De ville Bayeux", "url": "https://www.booking.com/hotel/fr/maison-de-ville-bayeux.fr.html", "score": "9,1", "rating_stars": "0.0", "latitude": "49.27403110", "longitude": "-0.70407276"},
{"city": "Bayeux", "name": "Le 31bis Guillaume", "url": "https://www.booking.com/hotel/fr/le-31bis.fr.html", "score": "8,7", "rating_stars": "0.0", "latitude": "49.27538804", "longitude": "-0.70214736"},
{"city": "Bayeux", "name": "La Pomme de nuit", "url": "https://www.booking.com/hotel/fr/la-pomme-de-nuit.fr.html", "score": "9,3", "rating_stars": "0.0", "latitude": "49.27830946", "longitude": "-0.69612828"},
{"city": "Bayeux", "name": "Le Petit Grenier", "url": "https://www.booking.com/hotel/fr/le-petit-grenier.fr.html", "score": "9,3", "rating_stars": "0.0", "latitude": "49.27216900", "longitude": "-0.69637600"},
{"city": "Bayeux", "name": "Gite Hameau de Cr\u00e9mel", "url": "https://www.booking.com/hotel/fr/gite-hameau-de-cremel.fr.html", "score": "9,2", "rating_stars": "0.0", "latitude": "49.26594835", "longitude": "-0.69632300"},
{"city": "Bayeux", "name": "La maison des marronniers", "url": "https://www.booking.com/hotel/fr/la-maison-des-marronniers-bayeux.fr.html", "score": null, "rating_stars": "0.0", "latitude": "49.27686500", "longitude": "-0.72618160"},
{"city": "Bayeux", "name": "Mon Saint-Martin - APPART\u2019HOTEL - C\u0153ur de Bayeux", "url": "https://www.booking.com/hotel/fr/mon-saint-martin-appart-coeur-de-bayeux.fr.html", "score": "6,8", "rating_stars": "0.0", "latitude": "49.27750118", "longitude": "-0.70326078"},
{"city": "Bayeux", "name": "Appartement Bayeux F3", "url": "https://www.booking.com/hotel/fr/appartement-bayeux-f3.fr.html", "score": "8,6", "rating_stars": "0.0", "latitude": "49.27976208", "longitude": "-0.70788118"},
{"city": "Bayeux", "name": "Les Volets Bleus", "url": "https://www.booking.com/hotel/fr/les-volets-bleus-bayeux.fr.html", "score": "8,4", "rating_stars": "0.0", "latitude": "49.26948440", "longitude": "-0.67731764"},
{"city": "Bayeux", "name": "Royal Confort", "url": "https://www.booking.com/hotel/fr/royal-confort.fr.html", "score": "8,5", "rating_stars": "0.0", "latitude": "49.27814500", "longitude": "-0.70848590"},
{"city": "Bayeux", "name": "Au c\u0153ur du vieux Bayeux, logement de charme", "url": "https://www.booking.com/hotel/fr/au-coeur-du-vieux-bayeux-logement-de-charme.fr.html", "score": "9,0", "rating_stars": "0.0", "latitude": "49.27645370", "longitude": "-0.70336870"},
{"city": "Bayeux", "name": "La cour des teinturiers", "url": "https://www.booking.com/hotel/fr/la-cour-des-teinturiers.fr.html", "score": "9,4", "rating_stars": "0.0", "latitude": "49.27681980", "longitude": "-0.70014330"},
{"city": "Bayeux", "name": "Les Lilas de Bellefontaine", "url": "https://www.booking.com/hotel/fr/les-lilas-de-bellefontaine.fr.html", "score": "9,6", "rating_stars": "0.0", "latitude": "49.27276264", "longitude": "-0.69479406"},
{"city": "Bayeux", "name": "Le Bajocasse", "url": "https://www.booking.com/hotel/fr/le-bajocasse-bayeux12.fr.html", "score": "8,6", "rating_stars": "0.0", "latitude": "49.27882080", "longitude": "-0.70797980"},
{"city": "Bayeux", "name": "Au c\u0153ur du centre historique", "url": "https://www.booking.com/hotel/fr/au-coeur-du-centre-historique-bayeux.fr.html", "score": "9,3", "rating_stars": "0.0", "latitude": "49.27407400", "longitude": "-0.70674400"},
{"city": "Bayeux", "name": "Chambre d\u00b4hote En Famille", "url": "https://www.booking.com/hotel/fr/chambre-d-hote-en-famille.fr.html", "score": "9,4", "rating_stars": "0.0", "latitude": "49.27541300", "longitude": "-0.69736500"},
{"city": "Bayeux", "name": "Le Monast\u00e8re", "url": "https://www.booking.com/hotel/fr/le-monastere-bayeux.fr.html", "score": "9,2", "rating_stars": "3.0", "latitude": "49.27522565", "longitude": "-0.70899847"},
{"city": "Bayeux", "name": "G\u00eete de la cath\u00e9drale", "url": "https://www.booking.com/hotel/fr/gite-de-la-cathedrale.fr.html", "score": "9,5", "rating_stars": "0.0", "latitude": "49.27660730", "longitude": "-0.70339724"},
{"city": "Bayeux", "name": "H\u00f4tel d'Argouges", "url": "https://www.booking.com/hotel/fr/d-argouges.fr.html", "score": "8,8", "rating_stars": "3.0", "latitude": "49.27899410", "longitude": "-0.70841700"},
{"city": "Bayeux", "name": "Campanile Bayeux", "url": "https://www.booking.com/hotel/fr/campanile-bayeux.fr.html", "score": "7,5", "rating_stars": "3.0", "latitude": "49.26999926", "longitude": "-0.70694983"},
{"city": "St Malo", "name": "Domaine De La Bastille", "url": "https://www.booking.com/hotel/fr/domaine-de-la-bastille.fr.html", "score": "8,4", "rating_stars": "0.0", "latitude": "48.66806358", "longitude": "-1.97044998"},
{"city": "St Malo", "name": "Appartements des Marins", "url": "https://www.booking.com/hotel/fr/appartements-des-marins.fr.html", "score": "8,5", "rating_stars": "0.0", "latitude": "48.64891000", "longitude": "-2.02491600"},
{"city": "St Malo", "name": "La Cordee by Cocoonr", "url": "https://www.booking.com/hotel/fr/la-cordee-saint-malo.fr.html", "score": "9,2", "rating_stars": "0.0", "latitude": "48.64795607", "longitude": "-2.02716374"},
{"city": "St Malo", "name": "H\u00f4tel et Appart\u2019h\u00f4tel L'Adresse", "url": "https://www.booking.com/hotel/fr/adresse.fr.html", "score": "8,9", "rating_stars": "4.0", "latitude": "48.65210596", "longitude": "-2.01712310"},
{"city": "St Malo", "name": "APPARTEMENT VUE MER St MALO CUISINE ENTIEREMENT EQUIPEE 6 PERSONNES", "url": "https://www.booking.com/hotel/fr/dauphine-saint-malo.fr.html", "score": "8,5", "rating_stars": "0.0", "latitude": "48.63983997", "longitude": "-2.01860750"},
{"city": "St Malo", "name": "La Villa C\u00f4t\u00e9 Mer", "url": "https://www.booking.com/hotel/fr/la-villa-ca-ta-c-mer.fr.html", "score": "8,6", "rating_stars": "0.0", "latitude": "48.61394870", "longitude": "-2.00951271"},
{"city": "St Malo", "name": "Le Port Malo", "url": "https://www.booking.com/hotel/fr/le-port-malo.fr.html", "score": "7,7", "rating_stars": "2.0", "latitude": "48.65090634", "longitude": "-2.02474326"},
{"city": "St Malo", "name": "Le 1684", "url": "https://www.booking.com/hotel/fr/le-1684.fr.html", "score": "8,0", "rating_stars": "3.0", "latitude": "48.65069900", "longitude": "-2.02505300"},
{"city": "St Malo", "name": "Malouini\u00e8re Le Valmarin", "url": "https://www.booking.com/hotel/fr/le-valmarin-malouiniere-du-18eme-siecl.fr.html", "score": "8,2", "rating_stars": "3.0", "latitude": "48.63437275", "longitude": "-2.01816648"},
{"city": "St Malo", "name": "Le Britannic", "url": "https://www.booking.com/hotel/fr/le-britannic.fr.html", "score": "7,9", "rating_stars": "2.0", "latitude": "48.64678829", "longitude": "-2.00719357"},
{"city": "St Malo", "name": "Le Hauban by Cocoonr", "url": "https://www.booking.com/hotel/fr/le-hauban-saint-malo.fr.html", "score": null, "rating_stars": "0.0", "latitude": "48.64767450", "longitude": "-2.02519510"},
{"city": "St Malo", "name": "Hotel La Cote d'Emeraude", "url": "https://www.booking.com/hotel/fr/la-cote-d-39-emeraude.fr.html", "score": "8,1", "rating_stars": "0.0", "latitude": "48.65609235", "longitude": "-2.00239680"},
{"city": "St Malo", "name": "Logis H\u00f4tel la Grassinais Saint-Malo", "url": "https://www.booking.com/hotel/fr/arcantis-la-grassinais.fr.html", "score": "8,3", "rating_stars": "3.0", "latitude": "48.62417450", "longitude": "-1.98798195"},
{"city": "St Malo", "name": "Ambassadeurs Logis Hotel", "url": "https://www.booking.com/hotel/fr/ambassadeurs.fr.html", "score": "8,5", "rating_stars": "3.0", "latitude": "48.65473054", "longitude": "-2.00773448"},
{"city": "St Malo", "name": "H\u00f4tel San Pedro", "url": "https://www.booking.com/hotel/fr/san-pedro.fr.html", "score": "8,2", "rating_stars": "2.0", "latitude": "48.64908143", "longitude": "-2.02793335"},
{"city": "St Malo", "name": "Apartment Le 1727", "url": "https://www.booking.com/hotel/fr/apartment-le-1725-1727.fr.html", "score": "9,6", "rating_stars": "0.0", "latitude": "48.64680800", "longitude": "-2.02425100"},
{"city": "St Malo", "name": "LE GEORGE V - Beau 2 chambres au coeur de St Servan", "url": "https://www.booking.com/hotel/fr/le-george-v-beau-2-chambres-au-coeur-de-st-servan.fr.html", "score": "7,8", "rating_stars": "0.0", "latitude": "48.63733160", "longitude": "-2.01573180"},
{"city": "St Malo", "name": "Villa Athanaze", "url": "https://www.booking.com/hotel/fr/villa-athanaze.fr.html", "score": "9,3", "rating_stars": "0.0", "latitude": "48.63369385", "longitude": "-2.00948149"},
{"city": "St Malo", "name": "Joli T2, gare, intra-muros & plage \u00e0 proximit\u00e9", "url": "https://www.booking.com/hotel/fr/joli-t2-gare-intra-muros-amp-plage-a-proximite.fr.html", "score": "8,6", "rating_stars": "0.0", "latitude": "48.64693580", "longitude": "-2.00882370"},
{"city": "St Malo", "name": "Best Western Alexandra", "url": "https://www.booking.com/hotel/fr/best-western-alexandra.fr.html", "score": "8,2", "rating_stars": "4.0", "latitude": "48.65716461", "longitude": "-2.00131685"},
{"city": "St Malo", "name": "Hotel de l'Europe", "url": "https://www.booking.com/hotel/fr/de-l-europe-saint-malo.fr.html", "score": "7,5", "rating_stars": "1.0", "latitude": "48.64785134", "longitude": "-2.00852662"},
{"city": "St Malo", "name": "Gentilhommi\u00e8re de la Grande Toutenais", "url": "https://www.booking.com/hotel/fr/gentilhommiere-de-la-grande-toutenais.fr.html", "score": "9,2", "rating_stars": "0.0", "latitude": "48.66663713", "longitude": "-1.95892721"},
{"city": "St Malo", "name": "H\u00f4tel Restaurant Le Cocktail Bar", "url": "https://www.booking.com/hotel/fr/le-cocktail-bar.fr.html", "score": "8,0", "rating_stars": "0.0", "latitude": "48.63292631", "longitude": "-2.00691998"},
{"city": "St Malo", "name": "Ty Yamahe by Cocoonr", "url": "https://www.booking.com/hotel/fr/ty-yamahe.fr.html", "score": "7,5", "rating_stars": "0.0", "latitude": "48.66849990", "longitude": "-1.98299940"},
{"city": "St Malo", "name": "Cap \u00e0 l'Ouest by Cocoonr", "url": "https://www.booking.com/hotel/fr/le-cap-a-l-ouest.fr.html", "score": "8,5", "rating_stars": "0.0", "latitude": "48.65080800", "longitude": "-2.02395910"},
{"city": "Mont Saint Michel", "name": "La Parenth\u00e8se de la Baie", "url": "https://www.booking.com/hotel/fr/la-parenthese-de-la-baie-courtils.fr.html", "score": "7,4", "rating_stars": "0.0", "latitude": "48.62940316", "longitude": "-1.42864372"},
{"city": "Mont Saint Michel", "name": "Village de G\u00eetes de l'Anse de Moidrey", "url": "https://www.booking.com/hotel/fr/village-de-gites-de-l-39-anse-de-moidrey.fr.html", "score": "8,6", "rating_stars": "3.0", "latitude": "48.57998825", "longitude": "-1.51653077"},
{"city": "Mont Saint Michel", "name": "La Bastide du Moulin - Mont St Michel", "url": "https://www.booking.com/hotel/fr/chambres-d-ha-tes-la-bastide-du-moulin.fr.html", "score": "9,2", "rating_stars": "0.0", "latitude": "48.57617413", "longitude": "-1.51268542"},
{"city": "Mont Saint Michel", "name": "Maison Tombelaine", "url": "https://www.booking.com/hotel/fr/maison-tombelaine.fr.html", "score": "9,5", "rating_stars": "0.0", "latitude": "48.67079653", "longitude": "-1.44114688"},
{"city": "Mont Saint Michel", "name": "G\u00eete la Taniere Le jersey", "url": "https://www.booking.com/hotel/fr/gite-la-taniere-le-jersey.fr.html", "score": "7,8", "rating_stars": "0.0", "latitude": "48.58103300", "longitude": "-1.51257200"},
{"city": "Mont Saint Michel", "name": "Maison Leonard", "url": "https://www.booking.com/hotel/fr/maison-leonard.fr.html", "score": "9,1", "rating_stars": "0.0", "latitude": "48.67084081", "longitude": "-1.44109458"},
{"city": "Mont Saint Michel", "name": "Camping C\u00f4t\u00e9 \u00d4 Mont-Saint-Michel **** - Maeva", "url": "https://www.booking.com/hotel/fr/camping-cote-o-mont-saint-michel-maeva.fr.html", "score": null, "rating_stars": "0.0", "latitude": "48.68692980", "longitude": "-1.48233200"},
{"city": "Mont Saint Michel", "name": "Terrasse du Mont Saint Michel", "url": "https://www.booking.com/hotel/fr/terrasse-du-mont-saint-michel.fr.html", "score": "9,3", "rating_stars": "0.0", "latitude": "48.58683071", "longitude": "-1.55802939"},
{"city": "Mont Saint Michel", "name": "Les escargots du mont", "url": "https://www.booking.com/hotel/fr/les-escargots-du-mont-tanis.fr.html", "score": "9,3", "rating_stars": "0.0", "latitude": "48.59458500", "longitude": "-1.44338000"},
{"city": "Mont Saint Michel", "name": "G\u00eete Tim\u00e9o Mont Saint-Michel", "url": "https://www.booking.com/hotel/fr/gite-mont-st-michel-pontorson.fr.html", "score": "9,3", "rating_stars": "0.0", "latitude": "48.57591600", "longitude": "-1.50576230"},
{"city": "Mont Saint Michel", "name": "Manoir de la Roche Torin, The Originals Relais (Relais du Silence)", "url": "https://www.booking.com/hotel/fr/le-manoir-de-la-roche-torin.fr.html", "score": "7,8", "rating_stars": "3.0", "latitude": "48.63727298", "longitude": "-1.42506182"},
{"city": "Mont Saint Michel", "name": "Les Gu\u00e9drils", "url": "https://www.booking.com/hotel/fr/les-guedrils.fr.html", "score": "9,5", "rating_stars": "0.0", "latitude": "48.68891936", "longitude": "-1.46124601"},
{"city": "Mont Saint Michel", "name": "Mont g\u00eete en Baie", "url": "https://www.booking.com/hotel/fr/mont-gite-en-baie.fr.html", "score": "8,4", "rating_stars": "0.0", "latitude": "48.68689481", "longitude": "-1.48203929"},
{"city": "Mont Saint Michel", "name": "Les Hirondelles de la Baie", "url": "https://www.booking.com/hotel/fr/les-hirondelles-de-la-baie.fr.html", "score": "9,0", "rating_stars": "0.0", "latitude": "48.67343240", "longitude": "-1.45410088"},
{"city": "Mont Saint Michel", "name": "G\u00eete Lucian Mont-saint-michel", "url": "https://www.booking.com/hotel/fr/gite-lucian-du-mont-saint-michel.fr.html", "score": "9,2", "rating_stars": "0.0", "latitude": "48.58525510", "longitude": "-1.50616360"},
{"city": "Mont Saint Michel", "name": "Ferme de la Ruette", "url": "https://www.booking.com/hotel/fr/ferme-de-la-ruette.fr.html", "score": "8,5", "rating_stars": "0.0", "latitude": "48.62736215", "longitude": "-1.44177670"},
{"city": "Mont Saint Michel", "name": "Au p'tit Mont", "url": "https://www.booking.com/hotel/fr/au-p-39-tit-mont.fr.html", "score": "9,4", "rating_stars": "0.0", "latitude": "48.59109880", "longitude": "-1.46617603"},
{"city": "Mont Saint Michel", "name": "Le Grand Champ - G\u00eete et chambres d'h\u00f4tes", "url": "https://www.booking.com/hotel/fr/le-grand-champ-huisnes-sur-mer.fr.html", "score": "9,1", "rating_stars": "0.0", "latitude": "48.60568100", "longitude": "-1.44737900"},
{"city": "Mont Saint Michel", "name": "Aux Chambres du Mont", "url": "https://www.booking.com/hotel/fr/la-casserole-de-la-baie.fr.html", "score": "8,9", "rating_stars": "0.0", "latitude": "48.60851100", "longitude": "-1.45232600"},
{"city": "Mont Saint Michel", "name": "La Gen\u00eate", "url": "https://www.booking.com/hotel/fr/la-genete.fr.html", "score": "8,3", "rating_stars": "0.0", "latitude": "48.68459592", "longitude": "-1.47695477"},
{"city": "Mont Saint Michel", "name": "Entre Mont St Michel et Merveille", "url": "https://www.booking.com/hotel/fr/entre-mont-st-michel-et-merveille.fr.html", "score": "8,1", "rating_stars": "0.0", "latitude": "48.66570000", "longitude": "-1.44664300"},
{"city": "Mont Saint Michel", "name": "L'Aurore de la Baie", "url": "https://www.booking.com/hotel/fr/l-39-aurore-de-la-baie.fr.html", "score": "9,7", "rating_stars": "0.0", "latitude": "48.60980731", "longitude": "-1.45251249"},
{"city": "Mont Saint Michel", "name": "Tranquil Holiday Home in Vains overlooking Mont Saint-Michel", "url": "https://www.booking.com/hotel/fr/tranquil-holiday-home-in-vains-overlooking-mont-saint-michel-vains.fr.html", "score": null, "rating_stars": "0.0", "latitude": "48.67220500", "longitude": "-1.45305500"},
{"city": "Mont Saint Michel", "name": "Le Moulin de la Butte", "url": "https://www.booking.com/hotel/fr/le-moulin-de-la-butte.fr.html", "score": "9,1", "rating_stars": "0.0", "latitude": "48.61049207", "longitude": "-1.45186208"},
{"city": "Mont Saint Michel", "name": "Le P\u00e9lican", "url": "https://www.booking.com/hotel/fr/le-pelican-gite-plein-de-charme-face-au-mont.fr.html", "score": null, "rating_stars": "0.0", "latitude": "48.60903076", "longitude": "-1.45443128"},
{"city": "Amiens", "name": "L'Emeraude", "url": "https://www.booking.com/hotel/fr/l-emmeraude.fr.html", "score": null, "rating_stars": "0.0", "latitude": "49.88551930", "longitude": "2.29436240"},
{"city": "Amiens", "name": "duplex proche gare vue tour Perret avec parking gratuit", "url": "https://www.booking.com/hotel/fr/duplex-proche-gare-amiens.fr.html", "score": "8,5", "rating_stars": "0.0", "latitude": "49.89246800", "longitude": "2.30527310"},
{"city": "Amiens", "name": "A la crois\u00e9e des chemins", "url": "https://www.booking.com/hotel/fr/a-la-croisee-des-chemins-amiens1.fr.html", "score": "8,8", "rating_stars": "0.0", "latitude": "49.89598570", "longitude": "2.30991570"},
{"city": "Amiens", "name": "LES JARDINS avec terrasse", "url": "https://www.booking.com/hotel/fr/les-jardins-amiens.fr.html", "score": null, "rating_stars": "0.0", "latitude": "49.89610250", "longitude": "2.31078990"},
{"city": "Amiens", "name": "Moxy Amiens", "url": "https://www.booking.com/hotel/fr/campanile-amiens-centre-gare.fr.html", "score": "8,6", "rating_stars": "3.0", "latitude": "49.89124900", "longitude": "2.30953000"},
{"city": "Amiens", "name": "HORTILLON", "url": "https://www.booking.com/hotel/fr/hortillon.fr.html", "score": "9,1", "rating_stars": "0.0", "latitude": "49.89638400", "longitude": "2.30637800"},
{"city": "Amiens", "name": "H\u00f4tel De Normandie", "url": "https://www.booking.com/hotel/fr/de-normandie-amiens.fr.html", "score": "6,8", "rating_stars": "2.0", "latitude": "49.89148612", "longitude": "2.30435550"},
{"city": "Amiens", "name": "LE CANGE", "url": "https://www.booking.com/hotel/fr/le-cange.fr.html", "score": "9,2", "rating_stars": "0.0", "latitude": "49.89638400", "longitude": "2.30637800"},
{"city": "Amiens", "name": "4 Chambres / Grande Maison / Toute \u00e9quip\u00e9e", "url": "https://www.booking.com/hotel/fr/4-chambres-grande-maison-toute-equipee.fr.html", "score": null, "rating_stars": "0.0", "latitude": "49.90712820", "longitude": "2.31726680"},
{"city": "Amiens", "name": "\"LA FABRIQUE\" en HYPERCENTRE PARKING GRATUIT", "url": "https://www.booking.com/hotel/fr/la-fabrique-en-hypercentre-6-pers-parking-gratuit.fr.html", "score": null, "rating_stars": "0.0", "latitude": "49.89715170", "longitude": "2.29931580"},
{"city": "Amiens", "name": "Hotel Victor Hugo", "url": "https://www.booking.com/hotel/fr/victor-hugo-amiens.fr.html", "score": "7,8", "rating_stars": "2.0", "latitude": "49.89325100", "longitude": "2.30454500"},
{"city": "Amiens", "name": "LA CABANE", "url": "https://www.booking.com/hotel/fr/la-cabane-amiens.fr.html", "score": "9,1", "rating_stars": "0.0", "latitude": "49.89610250", "longitude": "2.31078990"},
{"city": "Amiens", "name": "La Chambre D'Amiens", "url": "https://www.booking.com/hotel/fr/la-chambre-d-39-amiens.fr.html", "score": "8,5", "rating_stars": "3.0", "latitude": "49.89448371", "longitude": "2.27680253"},
{"city": "Amiens", "name": "Bonvallet - Studio paisible et chaleureux avec balcon", "url": "https://www.booking.com/hotel/fr/bonvallet-2-bien-chez-soi.fr.html", "score": null, "rating_stars": "0.0", "latitude": "49.90089071", "longitude": "2.29091478"},
{"city": "Amiens", "name": "LA BERGE", "url": "https://www.booking.com/hotel/fr/la-berge.fr.html", "score": "9,3", "rating_stars": "0.0", "latitude": "49.89610250", "longitude": "2.31078990"},
{"city": "Paris", "name": "Hotel Royal Berg\u00e8re", "url": "https://www.booking.com/hotel/fr/hotel-royal-bergere.fr.html", "score": "6,9", "rating_stars": "3.0", "latitude": "48.87345029", "longitude": "2.34394893"},
{"city": "Paris", "name": "Mercure Paris Centre Tour Eiffel", "url": "https://www.booking.com/hotel/fr/mercure-paris-suffren-tour-eiffel.fr.html", "score": "7,9", "rating_stars": "4.0", "latitude": "48.85520782", "longitude": "2.29221448"},
{"city": "Paris", "name": "Denfert-Montparnasse", "url": "https://www.booking.com/hotel/fr/denfert-montparnasse.fr.html", "score": "7,6", "rating_stars": "0.0", "latitude": "48.83531284", "longitude": "2.32607804"},
{"city": "Paris", "name": "Louvre Luxury Apartment & SPA", "url": "https://www.booking.com/hotel/fr/louvre-luxury-apartment-amp-spa.fr.html", "score": "9,5", "rating_stars": "0.0", "latitude": "48.86024710", "longitude": "2.34671720"},
{"city": "Paris", "name": "Tonic H\u00f4tel du Louvre", "url": "https://www.booking.com/hotel/fr/tonic-du-louvre.fr.html", "score": "6,9", "rating_stars": "3.0", "latitude": "48.86062060", "longitude": "2.34376252"},
{"city": "Paris", "name": "H\u00f4tel de S\u00e9vign\u00e9", "url": "https://www.booking.com/hotel/fr/de-sevigne-paris.fr.html", "score": "8,6", "rating_stars": "3.0", "latitude": "48.86875830", "longitude": "2.29240425"},
{"city": "Paris", "name": "Hotel Royal Phare", "url": "https://www.booking.com/hotel/fr/royal-phare.fr.html", "score": "8,5", "rating_stars": "0.0", "latitude": "48.85492545", "longitude": "2.30620757"},
{"city": "Paris", "name": "Novotel Paris Centre Tour Eiffel", "url": "https://www.booking.com/hotel/fr/novotel-paris-tour-eiffel.fr.html", "score": "7,5", "rating_stars": "4.0", "latitude": "48.85000944", "longitude": "2.28327759"},
{"city": "Paris", "name": "Residhome Paris Rosa Parks", "url": "https://www.booking.com/hotel/fr/residhome-paris-rosa-parks.fr.html", "score": "8,4", "rating_stars": "3.0", "latitude": "48.89532140", "longitude": "2.37260250"},
{"city": "Paris", "name": "Hotel Bridget", "url": "https://www.booking.com/hotel/fr/bridget.fr.html", "score": "8,1", "rating_stars": "3.0", "latitude": "48.86914800", "longitude": "2.39531700"},
{"city": "Paris", "name": "Motel One Paris-Porte Dor\u00e9e", "url": "https://www.booking.com/hotel/fr/motel-one-paris-porte-doree.fr.html", "score": "8,8", "rating_stars": "3.0", "latitude": "48.83494200", "longitude": "2.41024600"},
{"city": "Paris", "name": "Appartement Vertus", "url": "https://www.booking.com/hotel/fr/appartement-vertus.fr.html", "score": "8,9", "rating_stars": "0.0", "latitude": "48.86370548", "longitude": "2.35751420"},
{"city": "Paris", "name": "Hotel des Bains", "url": "https://www.booking.com/hotel/fr/des-bains-paris.fr.html", "score": "7,6", "rating_stars": "2.0", "latitude": "48.84145437", "longitude": "2.32638060"},
{"city": "Paris", "name": "H\u00f4tel Beauchamps", "url": "https://www.booking.com/hotel/fr/beauchamps.fr.html", "score": "7,6", "rating_stars": "4.0", "latitude": "48.87082933", "longitude": "2.30931401"},
{"city": "Paris", "name": "citizenM Paris Champs-\u00c9lys\u00e9es", "url": "https://www.booking.com/hotel/fr/citizenm-paris-champs-elysees.fr.html", "score": "8,8", "rating_stars": "4.0", "latitude": "48.87104800", "longitude": "2.30576700"},
{"city": "Paris", "name": "Hipotel Paris Voltaire Bastille", "url": "https://www.booking.com/hotel/fr/residence-voltaire.fr.html", "score": "7,2", "rating_stars": "3.0", "latitude": "48.85732465", "longitude": "2.38058925"},
{"city": "Paris", "name": "Hotel Villa Saxe Eiffel", "url": "https://www.booking.com/hotel/fr/villa-saxe-eiffel.fr.html", "score": "8,8", "rating_stars": "4.0", "latitude": "48.84972112", "longitude": "2.30974817"},
{"city": "Paris", "name": "Appartement Petits Champs", "url": "https://www.booking.com/hotel/fr/appartement-petits-champs.fr.html", "score": "8,8", "rating_stars": "0.0", "latitude": "48.86430633", "longitude": "2.34039703"},
{"city": "Paris", "name": "Eiffel Petit Louvre", "url": "https://www.booking.com/hotel/fr/eiffel-petit-louvre.fr.html", "score": "8,2", "rating_stars": "3.0", "latitude": "48.85052383", "longitude": "2.29237273"},
{"city": "Paris", "name": "Aparthotel Adagio Paris XV", "url": "https://www.booking.com/hotel/fr/parisxv.fr.html", "score": "7,2", "rating_stars": "3.0", "latitude": "48.83130941", "longitude": "2.28234261"},
{"city": "Paris", "name": "Hotel Nation Montmartre", "url": "https://www.booking.com/hotel/fr/nation-montmartre.fr.html", "score": "7,2", "rating_stars": "3.0", "latitude": "48.88437583", "longitude": "2.34902233"},
{"city": "Paris", "name": "Mercure Paris Alesia", "url": "https://www.booking.com/hotel/fr/paris-orleans.fr.html", "score": "8,4", "rating_stars": "4.0", "latitude": "48.82365654", "longitude": "2.32395172"},
{"city": "Paris", "name": "Appartement Glamour", "url": "https://www.booking.com/hotel/fr/appartement-glamour-paris.fr.html", "score": "8,1", "rating_stars": "0.0", "latitude": "48.89918200", "longitude": "2.37776800"},
{"city": "Paris", "name": "Hotel William's Opera", "url": "https://www.booking.com/hotel/fr/william-s-opera.fr.html", "score": "7,1", "rating_stars": "3.0", "latitude": "48.87684044", "longitude": "2.34582111"},
{"city": "Paris", "name": "H\u00f4tel Ambassadeur", "url": "https://www.booking.com/hotel/fr/ambassadeurparis.fr.html", "score": "7,3", "rating_stars": "3.0", "latitude": "48.89064475", "longitude": "2.32462831"},
{"city": "Paris", "name": "Aliz\u00e9 Grenelle Tour Eiffel", "url": "https://www.booking.com/hotel/fr/alize-grenelle-tour-eiffel.fr.html", "score": "8,0", "rating_stars": "3.0", "latitude": "48.84668930", "longitude": "2.28775464"},
{"city": "Paris", "name": "Lenox Montparnasse", "url": "https://www.booking.com/hotel/fr/lenox-montparnasse.fr.html", "score": "8,9", "rating_stars": "3.0", "latitude": "48.84162410", "longitude": "2.32784629"},
{"city": "Paris", "name": "VILLA EIFFEL MADEMOISELLE", "url": "https://www.booking.com/hotel/fr/villa-mademoiselle.fr.html", "score": "8,8", "rating_stars": "4.0", "latitude": "48.84377500", "longitude": "2.29683800"},
{"city": "Paris", "name": "Hotel Lorette - Astotel", "url": "https://www.booking.com/hotel/fr/loretteopera.fr.html", "score": "8,7", "rating_stars": "3.0", "latitude": "48.87889726", "longitude": "2.33705431"},
{"city": "Paris", "name": "Hotel Ile de France Op\u00e9ra", "url": "https://www.booking.com/hotel/fr/idfo.fr.html", "score": "7,7", "rating_stars": "3.0", "latitude": "48.86890342", "longitude": "2.33468056"},
{"city": "Paris", "name": "voco Paris Montparnasse, an IHG Hotel", "url": "https://www.booking.com/hotel/fr/holiday-inn-paris-montparnasse-maine.fr.html", "score": "8,5", "rating_stars": "4.0", "latitude": "48.83829556", "longitude": "2.32279971"},
{"city": "Paris", "name": "Passy Eiffel", "url": "https://www.booking.com/hotel/fr/passy-eiffel.fr.html", "score": "8,6", "rating_stars": "3.0", "latitude": "48.85839979", "longitude": "2.28346579"},
{"city": "Paris", "name": "Hotel Montpensier", "url": "https://www.booking.com/hotel/fr/montpensier-paris.fr.html", "score": "7,8", "rating_stars": "2.0", "latitude": "48.86430452", "longitude": "2.33623432"},
{"city": "Paris", "name": "H\u00f4tel De Castiglione", "url": "https://www.booking.com/hotel/fr/hoteldecastiglione.fr.html", "score": "7,6", "rating_stars": "4.0", "latitude": "48.86919056", "longitude": "2.32057683"},
{"city": "Paris", "name": "Aparthotel Adagio Porte de Versailles", "url": "https://www.booking.com/hotel/fr/portedeversaille.fr.html", "score": "7,6", "rating_stars": "4.0", "latitude": "48.83108340", "longitude": "2.28104442"},
{"city": "Paris", "name": "WIT Hotel", "url": "https://www.booking.com/hotel/fr/mattle.fr.html", "score": "7,2", "rating_stars": "3.0", "latitude": "48.87363773", "longitude": "2.34488100"},
{"city": "Paris", "name": "Beaugrenelle St-Charles Tour Eiffel", "url": "https://www.booking.com/hotel/fr/beaugrenelle-saint-charles.fr.html", "score": "8,1", "rating_stars": "3.0", "latitude": "48.84718794", "longitude": "2.28596628"},
{"city": "Paris", "name": "Hotel Villa Saxe Eiffel", "url": "https://www.booking.com/hotel/fr/villa-saxe-eiffel.fr.html", "score": "8,8", "rating_stars": "4.0", "latitude": "48.84972112", "longitude": "2.30974817"},
{"city": "Paris", "name": "Appartement Petits Champs", "url": "https://www.booking.com/hotel/fr/appartement-petits-champs.fr.html", "score": "8,8", "rating_stars": "0.0", "latitude": "48.86430633", "longitude": "2.34039703"},
{"city": "Paris", "name": "Eiffel Petit Louvre", "url": "https://www.booking.com/hotel/fr/eiffel-petit-louvre.fr.html", "score": "8,2", "rating_stars": "3.0", "latitude": "48.85052383", "longitude": "2.29237273"},
{"city": "Paris", "name": "Aparthotel Adagio Paris XV", "url": "https://www.booking.com/hotel/fr/parisxv.fr.html", "score": "7,2", "rating_stars": "3.0", "latitude": "48.83130941", "longitude": "2.28234261"},
{"city": "Paris", "name": "Modern Hotel", "url": "https://www.booking.com/hotel/fr/modernhotel.fr.html", "score": "6,9", "rating_stars": "2.0", "latitude": "48.86184169", "longitude": "2.38329694"},
{"city": "Paris", "name": "Hotel Nation Montmartre", "url": "https://www.booking.com/hotel/fr/nation-montmartre.fr.html", "score": "7,2", "rating_stars": "3.0", "latitude": "48.88437583", "longitude": "2.34902233"},
{"city": "Paris", "name": "Mercure Paris Alesia", "url": "https://www.booking.com/hotel/fr/paris-orleans.fr.html", "score": "8,4", "rating_stars": "4.0", "latitude": "48.82365654", "longitude": "2.32395172"},
{"city": "Paris", "name": "Appartement Glamour", "url": "https://www.booking.com/hotel/fr/appartement-glamour-paris.fr.html", "score": "8,1", "rating_stars": "0.0", "latitude": "48.89918200", "longitude": "2.37776800"},
{"city": "Paris", "name": "Hotel William's Opera", "url": "https://www.booking.com/hotel/fr/william-s-opera.fr.html", "score": "7,1", "rating_stars": "3.0", "latitude": "48.87684044", "longitude": "2.34582111"},
{"city": "Paris", "name": "H\u00f4tel Ambassadeur", "url": "https://www.booking.com/hotel/fr/ambassadeurparis.fr.html", "score": "7,3", "rating_stars": "3.0", "latitude": "48.89064475", "longitude": "2.32462831"},
{"city": "Paris", "name": "Aliz\u00e9 Grenelle Tour Eiffel", "url": "https://www.booking.com/hotel/fr/alize-grenelle-tour-eiffel.fr.html", "score": "8,0", "rating_stars": "3.0", "latitude": "48.84668930", "longitude": "2.28775464"},
{"city": "Paris", "name": "Lenox Montparnasse", "url": "https://www.booking.com/hotel/fr/lenox-montparnasse.fr.html", "score": "8,9", "rating_stars": "3.0", "latitude": "48.84162410", "longitude": "2.32784629"},
{"city": "Paris", "name": "VILLA EIFFEL MADEMOISELLE", "url": "https://www.booking.com/hotel/fr/villa-mademoiselle.fr.html", "score": "8,8", "rating_stars": "4.0", "latitude": "48.84377500", "longitude": "2.29683800"},
{"city": "Paris", "name": "Hotel Lorette - Astotel", "url": "https://www.booking.com/hotel/fr/loretteopera.fr.html", "score": "8,7", "rating_stars": "3.0", "latitude": "48.87889726", "longitude": "2.33705431"},
{"city": "Paris", "name": "Hotel Ile de France Op\u00e9ra", "url": "https://www.booking.com/hotel/fr/idfo.fr.html", "score": "7,7", "rating_stars": "3.0", "latitude": "48.86890342", "longitude": "2.33468056"},
{"city": "Paris", "name": "voco Paris Montparnasse, an IHG Hotel", "url": "https://www.booking.com/hotel/fr/holiday-inn-paris-montparnasse-maine.fr.html", "score": "8,5", "rating_stars": "4.0", "latitude": "48.83829556", "longitude": "2.32279971"},
{"city": "Paris", "name": "Hotel Montpensier", "url": "https://www.booking.com/hotel/fr/montpensier-paris.fr.html", "score": "7,8", "rating_stars": "2.0", "latitude": "48.86430452", "longitude": "2.33623432"},
{"city": "Paris", "name": "H\u00f4tel Villa Boh\u00e8me", "url": "https://www.booking.com/hotel/fr/ha-tel-villa-boha-me.fr.html", "score": "8,3", "rating_stars": "3.0", "latitude": "48.88012144", "longitude": "2.33416423"},
{"city": "Paris", "name": "Novotel Suites Paris Montreuil Vincennes", "url": "https://www.booking.com/hotel/fr/suitehotel-paris-porte-de-montreuil.fr.html", "score": "7,8", "rating_stars": "4.0", "latitude": "48.85600727", "longitude": "2.41509855"},
{"city": "Paris", "name": "Holiday Inn Paris Op\u00e9ra - Grands Boulevards, an IHG Hotel", "url": "https://www.booking.com/hotel/fr/holiday-inn-paris-opera-grands-boulevards.fr.html", "score": "8,3", "rating_stars": "4.0", "latitude": "48.87156746", "longitude": "2.34359622"},
{"city": "Paris", "name": "Hotel Bridget", "url": "https://www.booking.com/hotel/fr/bridget.fr.html", "score": "8,1", "rating_stars": "3.0", "latitude": "48.86914800", "longitude": "2.39531700"},
{"city": "Paris", "name": "H\u00f4tel Villa Boh\u00e8me", "url": "https://www.booking.com/hotel/fr/ha-tel-villa-boha-me.fr.html", "score": "8,3", "rating_stars": "3.0", "latitude": "48.88012144", "longitude": "2.33416423"},
{"city": "Paris", "name": "Novotel Suites Paris Montreuil Vincennes", "url": "https://www.booking.com/hotel/fr/suitehotel-paris-porte-de-montreuil.fr.html", "score": "7,8", "rating_stars": "4.0", "latitude": "48.85600727", "longitude": "2.41509855"},
{"city": "Paris", "name": "Hotel Cluny Square", "url": "https://www.booking.com/hotel/fr/clunysquareparis.fr.html", "score": "8,4", "rating_stars": "3.0", "latitude": "48.85148396", "longitude": "2.34343462"},
{"city": "Paris", "name": "Europe Saint Severin-Paris Notre Dame", "url": "https://www.booking.com/hotel/fr/europesaintseverin.fr.html", "score": "8,6", "rating_stars": "3.0", "latitude": "48.85270140", "longitude": "2.34428041"},
{"city": "Paris", "name": "H\u00f4tel Elys\u00e9es Paris", "url": "https://www.booking.com/hotel/fr/hotel-elysees-paris-france.fr.html", "score": "7,6", "rating_stars": "3.0", "latitude": "48.87602334", "longitude": "2.29624338"},
{"city": "Paris", "name": "HOTEL AU COEUR DU MARAIS", "url": "https://www.booking.com/hotel/fr/au-coeur-du-marais-paris.fr.html", "score": "8,3", "rating_stars": "0.0", "latitude": "48.86423900", "longitude": "2.35790300"},
{"city": "Paris", "name": "H\u00f4tel des Arts Montmartre", "url": "https://www.booking.com/hotel/fr/hoteldesarts.fr.html", "score": "9,4", "rating_stars": "4.0", "latitude": "48.88622423", "longitude": "2.33528137"},
{"city": "Paris", "name": "Hotel des Arts", "url": "https://www.booking.com/hotel/fr/des-arts-paris1.fr.html", "score": "8,1", "rating_stars": "2.0", "latitude": "48.87188026", "longitude": "2.34465466"},
{"city": "Paris", "name": "Virgina", "url": "https://www.booking.com/hotel/fr/virgina.fr.html", "score": "8,4", "rating_stars": "3.0", "latitude": "48.82401168", "longitude": "2.32749537"},
{"city": "Paris", "name": "H\u00f4tel De La Herse d'Or", "url": "https://www.booking.com/hotel/fr/la-herse-d-or.fr.html", "score": "7,8", "rating_stars": "2.0", "latitude": "48.85365213", "longitude": "2.36617237"},
{"city": "Paris", "name": "Chatillon Paris Montparnasse", "url": "https://www.booking.com/hotel/fr/chatillon.fr.html", "score": "7,8", "rating_stars": "3.0", "latitude": "48.82567891", "longitude": "2.32318729"},
{"city": "Paris", "name": "Citadines Les Halles Paris", "url": "https://www.booking.com/hotel/fr/citadines-aparthotel-les-halles.fr.html", "score": "8,0", "rating_stars": "4.0", "latitude": "48.86059281", "longitude": "2.34708443"},
{"city": "Paris", "name": "Tour Eiffel Rent", "url": "https://www.booking.com/hotel/fr/tour-eiffel-rent.fr.html", "score": "8,6", "rating_stars": "0.0", "latitude": "48.84843889", "longitude": "2.29924858"},
{"city": "Paris", "name": "Royal Wagram", "url": "https://www.booking.com/hotel/fr/royal-wagram.fr.html", "score": "6,8", "rating_stars": "2.0", "latitude": "48.88759779", "longitude": "2.31064819"},
{"city": "Paris", "name": "Excelsior Batignolles", "url": "https://www.booking.com/hotel/fr/le-baldaquin-excelsior.fr.html", "score": "8,3", "rating_stars": "3.0", "latitude": "48.88352216", "longitude": "2.32359499"},
{"city": "Paris", "name": "Hotel Mirabeau Eiffel", "url": "https://www.booking.com/hotel/fr/mirabeau-eiffel.fr.html", "score": "7,2", "rating_stars": "3.0", "latitude": "48.84405703", "longitude": "2.27965744"},
{"city": "Paris", "name": "Citadines Saint-Germain-des-Pr\u00e9s Paris", "url": "https://www.booking.com/hotel/fr/citadines-aparthotel-saint-germain-des-pres.fr.html", "score": "8,3", "rating_stars": "4.0", "latitude": "48.85492633", "longitude": "2.34115541"},
{"city": "Rouen", "name": "Cosy'Appart - LE GERVAIS", "url": "https://www.booking.com/hotel/fr/cosy-appart-le-gervais.fr.html", "score": "8,5", "rating_stars": "0.0", "latitude": "49.44621076", "longitude": "1.08646931"},
{"city": "Rouen", "name": "Comfort Hotel Rouen Alba", "url": "https://www.booking.com/hotel/fr/albarouen.fr.html", "score": "7,2", "rating_stars": "2.0", "latitude": "49.43844769", "longitude": "1.09431311"},
{"city": "Rouen", "name": "Cocon entre GareSNCF et VieuxMarch\u00e9, refait \u00e0 neuf", "url": "https://www.booking.com/hotel/fr/cocon-entre-garesncf-et-vieuxmarche-refait-a-neuf.fr.html", "score": "7,9", "rating_stars": "0.0", "latitude": "49.44560360", "longitude": "1.09029580"},
{"city": "Rouen", "name": "Astrid", "url": "https://www.booking.com/hotel/fr/hotelastrid_rouen.fr.html", "score": "6,4", "rating_stars": "0.0", "latitude": "49.44830636", "longitude": "1.09381422"},
{"city": "Rouen", "name": "Novotel Suites Rouen Normandie", "url": "https://www.booking.com/hotel/fr/suitehotel-rouen-normandie.fr.html", "score": "7,9", "rating_stars": "4.0", "latitude": "49.44313922", "longitude": "1.07542634"},
{"city": "Rouen", "name": "Le First, centre ville terrasse et parking", "url": "https://www.booking.com/hotel/fr/the-first.fr.html", "score": "9,4", "rating_stars": "0.0", "latitude": "49.44602520", "longitude": "1.08323050"},
{"city": "Rouen", "name": "Le 4B - Le Tiki", "url": "https://www.booking.com/hotel/fr/le-4b-mathilde.fr.html", "score": "9,2", "rating_stars": "0.0", "latitude": "49.44654520", "longitude": "1.09290320"},
{"city": "Rouen", "name": "Superbe appartement St sever", "url": "https://www.booking.com/hotel/fr/superbe-appartement-st-sever.fr.html", "score": null, "rating_stars": "0.0", "latitude": "49.42877480", "longitude": "1.08096370"},