[
    {"city": "Bayeux", "name": "ibis budget Bayeux", "url": "https://www.booking.com/hotel/fr/etap-bayeux.fr.html", "score": "8,2", "rating_stars": "2.0", "latitude": "49.25424209", "longitude": "-0.64648747"},
    {"city": "Bayeux", "name": "Ch\u00e2teau Saint Gilles", "url": "https://www.booking.com/hotel/fr/chateau-saint-gilles.fr.html", "score": "9,7", "rating_stars": "0.0", "latitude": "49.24936600", "longitude": "-0.71246900"},
    {"city": "Bayeux", "name": "Hotel Le Lion D'Or et Restaurant La Table Du Lion", "url": "https://www.booking.com/hotel/fr/le-lion-d-or-bayeux.fr.html", "score": "8,6", "rating_stars": "3.0", "latitude": "49.27627832", "longitude": "-0.69836944"},
    {"city": "Bayeux", "name": "Au Loup Historic Apartments", "url": "https://www.booking.com/hotel/fr/au-loup-historic-apartments-bayeux.fr.html", "score": "8,6", "rating_stars": "0.0", "latitude": "49.27279800", "longitude": "-0.70755600"},
    {"city": "Bayeux", "name": "Hotel Reine Mathilde", "url": "https://www.booking.com/hotel/fr/reine-mathilde-bayeux.fr.html", "score": "8,6", "rating_stars": "2.0", "latitude": "49.27603159", "longitude": "-0.70172489"},
    {"city": "Bayeux", "name": "Le Castel Guesthouse", "url": "https://www.booking.com/hotel/fr/le-castel-noble-guesthouse.fr.html", "score": "8,7", "rating_stars": "0.0", "latitude": "49.27368314", "longitude": "-0.70322692"},
    {"city": "Bayeux", "name": "Domaine de Bayeux", "url": "https://www.booking.com/hotel/fr/domaine-de-bayeux.fr.html", "score": "9,4", "rating_stars": "3.0", "latitude": "49.27232560", "longitude": "-0.69851010"},
    {"city": "Bayeux", "name": "H\u00f4tel particulier \"le clos de la croix\"", "url": "https://www.booking.com/hotel/fr/particulier-quot-le-clos-de-la-croix-quot.fr.html", "score": "9,8", "rating_stars": "0.0", "latitude": "49.27796400", "longitude": "-0.70167700"},
    {"city": "Bayeux", "name": "Ch\u00e2teau de Bellefontaine", "url": "https://www.booking.com/hotel/fr/chateau-de-bellefontaine.fr.html", "score": "8,1", "rating_stars": "4.0", "latitude": "49.26974024", "longitude": "-0.68883955"},
    {"city": "Bayeux", "name": "H\u00f4tel De Brunville et La Table du Grand Luxembourg", "url": "https://www.booking.com/hotel/fr/hoteldebrunville.fr.html", "score": "7,8", "rating_stars": "3.0", "latitude": "49.27815769", "longitude": "-0.70351392"},
    {"city": "Bayeux", "name": "Churchill Hotel Bayeux Centre", "url": "https://www.booking.com/hotel/fr/churchill-bayeux.fr.html", "score": "8,2", "rating_stars": "3.0", "latitude": "49.27660730", "longitude": "-0.70057154"},
    {"city": "Bayeux", "name": "Domitys Les Falaises Blanches", "url": "https://www.booking.com/hotel/fr/domitys-les-falaises-blanches.fr.html", "score": "8,7", "rating_stars": "0.0", "latitude": "49.27913671", "longitude": "-0.72042494"},
    {"city": "Bayeux", "name": "LOGIS DU GRAND PIN", "url": "https://www.booking.com/hotel/fr/logis-du-grand-pin.fr.html", "score": "9,5", "rating_stars": "0.0", "latitude": "49.25200360", "longitude": "-0.66984770"},
    {"city": "Bayeux", "name": "Ch\u00e2teau de Monceaux 5mn de Bayeux proche Mer", "url": "https://www.booking.com/hotel/fr/le-chateau-de-monceau.fr.html", "score": "9,0", "rating_stars": "0.0", "latitude": "49.25214479", "longitude": "-0.69390664"},
    {"city": "Bayeux", "name": "L'\u00c9cole Buissonni\u00e8re", "url": "https://www.booking.com/hotel/fr/l-39-ecole-buissonniere-bayeux.fr.html", "score": "9,5", "rating_stars": "0.0", "latitude": "49.28082623", "longitude": "-0.69080722"},
    {"city": "Bayeux", "name": "H\u00f4tel Le Bayeux", "url": "https://www.booking.com/hotel/fr/le-bayeux.fr.html", "score": "8,2", "rating_stars": "3.0", "latitude": "49.27415914", "longitude": "-0.70450634"},
    {"city": "Bayeux", "name": "DOMAINE DU GRAND CAUGY", "url": "https://www.booking.com/hotel/fr/domaine-du-grand-caugy.fr.html", "score": "8,8", "rating_stars": "0.0", "latitude": "49.28256300", "longitude": "-0.67736300"},
    {"city": "Bayeux", "name": "FREEDOM APPART - CENTRE HISTORIQUE - LUMINEUX - Bayeux", "url": "https://www.booking.com/hotel/fr/centre-historique-lumineux-parking-gratuit.fr.html", "score": "9,1", "rating_stars": "0.0", "latitude": "49.27814786", "longitude": "-0.70626530"},
    {"city": "Bayeux", "name": "Grand H\u00f4tel du Luxembourg et La Table du Grand Luxembourg", "url": "https://www.booking.com/hotel/fr/hotelduluxembourg.fr.html", "score": "7,8", "rating_stars": "4.0", "latitude": "49.27842191", "longitude": "-0.70329666"},
    {"city": "Bayeux", "name": "Clos de Bellefontaine B&B", "url": "https://www.booking.com/hotel/fr/chambres-d-ha-tes-clos-de-bellefontaine-bayeux.fr.html", "score": "9,6", "rating_stars": "0.0", "latitude": "49.27267164", "longitude": "-0.69486111"},
    {"city": "Bayeux", "name": "Villa Des Ursulines", "url": "https://www.booking.com/hotel/fr/appartement-des-ursulines.fr.html", "score": "8,7", "rating_stars": "0.0", "latitude": "49.27646775", "longitude": "-0.70556582"},
    {"city": "Bayeux", "name": "La Colline", "url": "https://www.booking.com/hotel/fr/la-colline-bayeux.fr.html", "score": "9,6", "rating_stars": "0.0", "latitude": "49.27399410", "longitude": "-0.69870470"},
    {"city": "Bayeux", "name": "Le Petit Matin", "url": "https://www.booking.com/hotel/fr/le-petit-matin.fr.html", "score": "9,5", "rating_stars": "0.0", "latitude": "49.27606133", "longitude": "-0.70905536"},
    {"city": "Bayeux", "name": "L'AURE BLEUE", "url": "https://www.booking.com/hotel/fr/l-39-aure-bleue.fr.html", "score": "9,1", "rating_stars": "4.0", "latitude": "49.27725960", "longitude": "-0.69928400"},
    {"city": "Bayeux", "name": "Manoir Sainte Victoire", "url": "https://www.booking.com/hotel/fr/manoir-sainte-victoire.fr.html", "score": "9,7", "rating_stars": "0.0", "latitude": "49.27649171", "longitude": "-0.70575960"},
    {"city": "Bayeux", "name": "H\u00f4tel particulier \"le clos de la croix\"", "url": "https://www.booking.com/hotel/fr/particulier-quot-le-clos-de-la-croix-quot.fr.html", "score": "9,8", "rating_stars": "0.0", "latitude": "49.27796400", "longitude": "-0.70167700"},
    {"city": "Bayeux", "name": "Appartement centre-ville Bayeux, tout \u00e0 pied !", "url": "https://www.booking.com/hotel/fr/appartement-centre-ville-bayeux-tout-a-pied-bayeux.fr.html", "score": "9,5", "rating_stars": "0.0", "latitude": "49.27643410", "longitude": "-0.69997250"},
    {"city": "Bayeux", "name": "appartement l'\u00e9toile", "url": "https://www.booking.com/hotel/fr/appartement-l-39-etoile.fr.html", "score": "9,6", "rating_stars": "0.0", "latitude": "49.27893640", "longitude": "-0.70770880"},
    {"city": "Bayeux", "name": "Villa Cam\u00e9lia", "url": "https://www.booking.com/hotel/fr/villa-camelia-bayeux.fr.html", "score": "9,0", "rating_stars": "0.0", "latitude": "49.27992250", "longitude": "-0.71092490"},
    {"city": "Bayeux", "name": "Le Chat Qui Veille", "url": "https://www.booking.com/hotel/fr/gite-6-47-9-personnes-bayeux.fr.html", "score": "9,9", "rating_stars": "0.0", "latitude": "49.28464200", "longitude": "-0.71455100"},
    {"city": "Bayeux", "name": "La Cour Royale", "url": "https://www.booking.com/hotel/fr/la-cour-royale.fr.html", "score": "8,8", "rating_stars": "0.0", "latitude": "49.27766400", "longitude": "-0.70855300"},
    {"city": "Bayeux", "name": "H\u00f4tel Le Saint Patrice", "url": "https://www.booking.com/hotel/fr/saint-patrice.fr.html", "score": "8,4", "rating_stars": "2.0", "latitude": "49.27981023", "longitude": "-0.71067492"},
    {"city": "Bayeux", "name": "Normandy Confort - WIFI & CALM - Bayeux Centre", "url": "https://www.booking.com/hotel/fr/normandy-confort-wifi-amp-calm-bayeux-centre.fr.html", "score": null, "rating_stars": "0.0", "latitude": "49.28137260", "longitude": "-0.70144650"},
    {"city": "Bayeux", "name": "Le Manoir des Doyens", "url": "https://www.booking.com/hotel/fr/le-manoir-des-doyens.fr.html", "score": "8,9", "rating_stars": "0.0", "latitude": "49.26616863", "longitude": "-0.71424276"},
    {"city": "Bayeux", "name": "Chambre d'h\u00f4tes Logis de Saint Jean", "url": "https://www.booking.com/hotel/fr/logis-de-saint-jean.fr.html", "score": "9,1", "rating_stars": "0.0", "latitude": "49.27600709", "longitude": "-0.69828361"},
    {"city": "Bayeux", "name": "La Tour Bayeux", "url": "https://www.booking.com/hotel/fr/la-tour-bayeux-bayeux.fr.html", "score": "9,7", "rating_stars": "0.0", "latitude": "49.27571400", "longitude": "-0.69804200"},
    {"city": "Bayeux", "name": "Premiere Classe Bayeux", "url": "https://www.booking.com/hotel/fr/premiere-classe-bayeux.fr.html", "score": "7,7", "rating_stars": "1.0", "latitude": "49.26942872", "longitude": "-0.70668697"},
    {"city": "Bayeux", "name": "H\u00f4tel Chateau De Sully", "url": "https://www.booking.com/hotel/fr/chateau-de-sully.fr.html", "score": "8,0", "rating_stars": "0.0", "latitude": "49.29943464", "longitude": "-0.73136866"},
    {"city": "Bayeux", "name": "Villa Lara Hotel", "url": "https://www.booking.com/hotel/fr/villa-lara-ha-tel.fr.html", "score": "9,7", "rating_stars": "5.0", "latitude": "49.27551886", "longitude": "-0.70096448"},
    {"city": "Bayeux", "name": "Aggarthi Bed and Breakfast", "url": "https://www.booking.com/hotel/fr/chambres-d-hotes-villa-aggarthi.fr.html", "score": "9,3", "rating_stars": "0.0", "latitude": "49.27405764", "longitude": "-0.69851428"},
    {"city": "Bayeux", "name": "La Naomath - Maison d'h\u00f4tes, H\u00e9bergement insolite & G\u00eete", "url": "https://www.booking.com/hotel/fr/la-naomath.fr.html", "score": "8,3", "rating_stars": "3.0", "latitude": "49.24770809", "longitude": "-0.65629363"},
    {"city": "Bayeux", "name": "largo", "url": "https://www.booking.com/hotel/fr/largo.fr.html", "score": "9,0", "rating_stars": "0.0", "latitude": "49.27631225", "longitude": "-0.70026888"},
    {"city": "Bayeux", "name": "Le 32 Bis", "url": "https://www.booking.com/hotel/fr/le-cocon-bayeux.fr.html", "score": "9,6", "rating_stars": "0.0", "latitude": "49.27732522", "longitude": "-0.70272867"},
    {"city": "Bayeux", "name": "Novotel Bayeux", "url": "https://www.booking.com/hotel/fr/novotel.fr.html", "score": "7,8", "rating_stars": "4.0", "latitude": "49.28176922", "longitude": "-0.71848869"},
    {"city": "Bayeux", "name": "Le Boudoir", "url": "https://www.booking.com/hotel/fr/villa-bayeux.fr.html", "score": "9,4", "rating_stars": "4.0", "latitude": "49.28136235", "longitude": "-0.70007582"},
    {"city": "Bayeux", "name": "Appart\u2019h\u00f4tel saint patrice", "url": "https://www.booking.com/hotel/fr/appart-saint-patrice.fr.html", "score": "9,0", "rating_stars": "2.0", "latitude": "49.28024200", "longitude": "-0.71046000"},
    {"city": "Bayeux", "name": "La Closerie Teranga", "url": "https://www.booking.com/hotel/fr/la-closerie-teranga.fr.html", "score": "8,9", "rating_stars": "0.0", "latitude": "49.27804172", "longitude": "-0.70187662"},
    {"city": "Bayeux", "name": "La Maison de Mathilde", "url": "https://www.booking.com/hotel/fr/la-maison-de-mathilde.fr.html", "score": "9,0", "rating_stars": "0.0", "latitude": "49.27647468", "longitude": "-0.70247008"},
    {"city": "Bayeux", "name": "Appartement Cam\u00e9lia Bayeux centre-ville", "url": "https://www.booking.com/hotel/fr/appartement-camelia-bayeux-centre-ville.fr.html", "score": "8,6", "rating_stars": "0.0", "latitude": "49.27993650", "longitude": "-0.71098927"},
    {"city": "Bayeux", "name": "WELCOME Bayeux", "url": "https://www.booking.com/hotel/fr/94-rue-saint-jean.fr.html", "score": "9,3", "rating_stars": "0.0", "latitude": "49.27560730", "longitude": "-0.69762050"},
    {"city": "Bayeux", "name": "Appartement Bayeux", "url": "https://www.booking.com/hotel/fr/appartement-bayeux.fr.html", "score": "9,6", "rating_stars": "0.0", "latitude": "49.27632000", "longitude": "-0.69923700"},
    {"city": "Bayeux", "name": "La Citadine", "url": "https://www.booking.com/hotel/fr/la-citadine.fr.html", "score": "9,6", "rating_stars": "0.0", "latitude": "49.28006400", "longitude": "-0.70907700"},
    {"city": "Bayeux", "name": "Croissant de Lune - C\u0153ur de Ville - Old Town", "url": "https://www.booking.com/hotel/fr/croissant-de-lune-coeur-de-ville-old-town.fr.html", "score": null, "rating_stars": "0.0", "latitude": "49.27659810", "longitude": "-0.69905130"},
    {"city": "Bayeux", "name": "Maison De ville Bayeux", "url": "https://www.booking.com/hotel/fr/maison-de-ville-bayeux.fr.html", "score": "9,1", "rating_stars": "0.0", "latitude": "49.27403110", "longitude": "-0.70407276"},
    {"city": "Bayeux", "name": "Le 31bis Guillaume", "url": "https://www.booking.com/hotel/fr/le-31bis.fr.html", "score": "8,7", "rating_stars": "0.0", "latitude": "49.27538804", "longitude": "-0.70214736"},
    {"city": "Bayeux", "name": "La Pomme de nuit", "url": "https://www.booking.com/hotel/fr/la-pomme-de-nuit.fr.html", "score": "9,3", "rating_stars": "0.0", "latitude": "49.27830946", "longitude": "-0.69612828"},
    {"city": "Bayeux", "name": "Le Petit Grenier", "url": "https://www.booking.com/hotel/fr/le-petit-grenier.fr.html", "score": "9,3", "rating_stars": "0.0", "latitude": "49.27216900", "longitude": "-0.69637600"},
    {"city": "Bayeux", "name": "Gite Hameau de Cr\u00e9mel", "url": "https://www.booking.com/hotel/fr/gite-hameau-de-cremel.fr.html", "score": "9,2", "rating_stars": "0.0", "latitude": "49.26594835", "longitude": "-0.69632300"},
    {"city": "Bayeux", "name": "La maison des marronniers", "url": "https://www.booking.com/hotel/fr/la-maison-des-marronniers-bayeux.fr.html", "score": null, "rating_stars": "0.0", "latitude": "49.27686500", "longitude": "-0.72618160"},
    {"city": "Bayeux", "name": "Mon Saint-Martin - APPART\u2019HOTEL - C\u0153ur de Bayeux", "url": "https://www.booking.com/hotel/fr/mon-saint-martin-appart-coeur-de-bayeux.fr.html", "score": "6,8", "rating_stars": "0.0", "latitude": "49.27750118", "longitude": "-0.70326078"},
    {"city": "Bayeux", "name": "Appartement Bayeux F3", "url": "https://www.booking.com/hotel/fr/appartement-bayeux-f3.fr.html", "score": "8,6", "rating_stars": "0.0", "latitude": "49.27976208", "longitude": "-0.70788118"},
    {"city": "Bayeux", "name": "Les Volets Bleus", "url": "https://www.booking.com/hotel/fr/les-volets-bleus-bayeux.fr.html", "score": "8,4", "rating_stars": "0.0", "latitude": "49.26948440", "longitude": "-0.67731764"},
    {"city": "Bayeux", "name": "Royal Confort", "url": "https://www.booking.com/hotel/fr/royal-confort.fr.html", "score": "8,5", "rating_stars": "0.0", "latitude": "49.27814500", "longitude": "-0.70848590"},
    {"city": "Bayeux", "name": "Au c\u0153ur du vieux Bayeux, logement de charme", "url": "https://www.booking.com/hotel/fr/au-coeur-du-vieux-bayeux-logement-de-charme.fr.html", "score": "9,0", "rating_stars": "0.0", "latitude": "49.27645370", "longitude": "-0.70336870"},
    {"city": "Bayeux", "name": "Le Grand Arbre", "url": "https://www.booking.com/hotel/fr/le-grand-arbre.fr.html", "score": "9,6", "rating_stars": "0.0", "latitude": "49.27335900", "longitude": "-0.69054330"},
    {"city": "Bayeux", "name": "Ch\u00e2teau de la Ferri\u00e8re", "url": "https://www.booking.com/hotel/fr/chateau-de-la-ferriere.fr.html", "score": "9,6", "rating_stars": "0.0", "latitude": "49.30443677", "longitude": "-0.69898635"},
    {"city": "Bayeux", "name": "Appartement Omaha Beach", "url": "https://www.booking.com/hotel/fr/appartement-omaha-beach-bayeux.fr.html", "score": "8,4", "rating_stars": "0.0", "latitude": "49.27466400", "longitude": "-0.70706730"},
    {"city": "Bayeux", "name": "Hello Bayeux - Confort dans le coeur de la ville", "url": "https://www.booking.com/hotel/fr/hello-bayeux-confort-dans-le-coeur-de-la-ville.fr.html", "score": null, "rating_stars": "0.0", "latitude": "49.27734920", "longitude": "-0.70428290"},
    {"city": "Bayeux", "name": "Le petit Valhalla", "url": "https://www.booking.com/hotel/fr/le-petit-valhalla.fr.html", "score": "9,3", "rating_stars": "0.0", "latitude": "49.27883719", "longitude": "-0.70080550"},
    {"city": "Bayeux", "name": "Cam\u00e9lia", "url": "https://www.booking.com/hotel/fr/camelia-bayeux.fr.html", "score": "9,2", "rating_stars": "0.0", "latitude": "49.27392100", "longitude": "-0.69976000"},
    {"city": "Bayeux", "name": "Hostellerie des Grands Chapeaux", "url": "https://www.booking.com/hotel/fr/hostellerie-des-grands-chapeaux.fr.html", "score": "7,7", "rating_stars": "0.0", "latitude": "49.27936100", "longitude": "-0.69900200"},
    {"city": "Bayeux", "name": "Le Comble de l'Aure YourHostHelper", "url": "https://www.booking.com/hotel/fr/le-comble-de-l-aure-yourhosthelper.fr.html", "score": null, "rating_stars": "0.0", "latitude": "49.27721110", "longitude": "-0.70092660"},
    {"city": "Bayeux", "name": "Large apartment for 6 people in Bayeux", "url": "https://www.booking.com/hotel/fr/grand-appartement-de-6-personnes-a-bayeux.fr.html", "score": "7,0", "rating_stars": "0.0", "latitude": "49.27688860", "longitude": "-0.70186430"},
    {"city": "Bayeux", "name": "Mon Saint-Malo - APPART'HOTEL - Coeur de Bayeux", "url": "https://www.booking.com/hotel/fr/mon-saint-malo-appart-coeur-de-bayeux.fr.html", "score": null, "rating_stars": "0.0", "latitude": "49.27795540", "longitude": "-0.70509190"},
    {"city": "Bayeux", "name": "Studio Juno Beach", "url": "https://www.booking.com/hotel/fr/studio-juno-beach.fr.html", "score": null, "rating_stars": "0.0", "latitude": "49.27465903", "longitude": "-0.70707245"},
    {"city": "Bayeux", "name": "Le 4", "url": "https://www.booking.com/hotel/fr/le-4-bayeux.fr.html", "score": "9,4", "rating_stars": "0.0", "latitude": "49.27612713", "longitude": "-0.70589116"},
    {"city": "Bayeux", "name": "Maison de ville, 2ch, La Petite Aure", "url": "https://www.booking.com/hotel/fr/maison-de-ville-2ch-la-petite-aure.fr.html", "score": "8,8", "rating_stars": "0.0", "latitude": "49.27735730", "longitude": "-0.69883150"},
    {"city": "Bayeux", "name": "La Plus Petite Maison De France", "url": "https://www.booking.com/hotel/fr/tour-de-l-39-islet.fr.html", "score": "9,4", "rating_stars": "0.0", "latitude": "49.27661977", "longitude": "-0.70109993"},
    {"city": "Bayeux", "name": "Maison centre Bayeux 5 chambres 10 personnes", "url": "https://www.booking.com/hotel/fr/maison-centre-bayeux-5-chambres-10-personnes.fr.html", "score": "8,5", "rating_stars": "0.0", "latitude": "49.27822530", "longitude": "-0.70231200"},
    {"city": "Bayeux", "name": "Le Boh\u00e8me", "url": "https://www.booking.com/hotel/fr/le-boheme.fr.html", "score": null, "rating_stars": "0.0", "latitude": "49.27457517", "longitude": "-0.70555304"},
    {"city": "Bayeux", "name": "appartement avec vue sur cath\u00e9drale class\u00e9 de tourisme 3 \u00e9toiles", "url": "https://www.booking.com/hotel/fr/appartement-avec-vue-sur-cathedrale.fr.html", "score": "8,8", "rating_stars": "0.0", "latitude": "49.27484490", "longitude": "-0.69927780"},
    {"city": "Bayeux", "name": "La Paresse en Ville", "url": "https://www.booking.com/hotel/fr/la-paresse-en-ville.fr.html", "score": "9,5", "rating_stars": "0.0", "latitude": "49.28573500", "longitude": "-0.71582400"},
    {"city": "Bayeux", "name": "Chez Titi", "url": "https://www.booking.com/hotel/fr/chez-titi.fr.html", "score": "8,7", "rating_stars": "0.0", "latitude": "49.27611885", "longitude": "-0.70412572"},
    {"city": "Bayeux", "name": "Cosy Apartment in Bayeux with Heating Facility", "url": "https://www.booking.com/hotel/fr/cosy-apartment-in-bayeux-with-heating-facility.fr.html", "score": null, "rating_stars": "0.0", "latitude": "49.28153500", "longitude": "-0.70136000"},
    {"city": "Bayeux", "name": "Maison tr\u00e8s beau jardin 10 mn a pied centre ville Bayeux proche plages du d\u00e9barquement", "url": "https://www.booking.com/hotel/fr/maison-tres-beau-jardin-10-mn-a-pied-de-cathedrale.fr.html", "score": "9,2", "rating_stars": "0.0", "latitude": "49.27788340", "longitude": "-0.71405540"},
    {"city": "Bayeux", "name": "Studio cocooning au pied de la Cath\u00e9drale Bayeux", "url": "https://www.booking.com/hotel/fr/studio-cocooning-au-pied-de-la-cathedrale-bayeux.fr.html", "score": "8,9", "rating_stars": "0.0", "latitude": "49.27457440", "longitude": "-0.70222610"},
    {"city": "Bayeux", "name": "Le Cocon", "url": "https://www.booking.com/hotel/fr/le-cocon-bayeux1.fr.html", "score": "8,8", "rating_stars": "0.0", "latitude": "49.27456678", "longitude": "-0.70552890"},
    {"city": "Bayeux", "name": "Coeur de BAYEUX", "url": "https://www.booking.com/hotel/fr/centre-ville-bayeux.fr.html", "score": null, "rating_stars": "0.0", "latitude": "49.27816530", "longitude": "-0.70521670"},
    {"city": "Bayeux", "name": "VICTOIRE APPART - CENTRE HISTORIQUE - LUMINEUX - Bayeux", "url": "https://www.booking.com/hotel/fr/appartement-atypique-centre-historique.fr.html", "score": "9,0", "rating_stars": "0.0", "latitude": "49.27815486", "longitude": "-0.70626262"},
    {"city": "Bayeux", "name": "La cour des teinturiers", "url": "https://www.booking.com/hotel/fr/la-cour-des-teinturiers.fr.html", "score": "9,4", "rating_stars": "0.0", "latitude": "49.27681980", "longitude": "-0.70014330"},
    {"city": "Bayeux", "name": "Villa Des Ursulines", "url": "https://www.booking.com/hotel/fr/appartement-des-ursulines.fr.html", "score": "8,7", "rating_stars": "0.0", "latitude": "49.27646775", "longitude": "-0.70556582"},
    {"city": "Bayeux", "name": "Les Lilas de Bellefontaine", "url": "https://www.booking.com/hotel/fr/les-lilas-de-bellefontaine.fr.html", "score": "9,6", "rating_stars": "0.0", "latitude": "49.27276264", "longitude": "-0.69479406"},
    {"city": "Bayeux", "name": "Le Bajocasse", "url": "https://www.booking.com/hotel/fr/le-bajocasse-bayeux12.fr.html", "score": "8,6", "rating_stars": "0.0", "latitude": "49.27882080", "longitude": "-0.70797980"},
    {"city": "Bayeux", "name": "Au c\u0153ur du centre historique", "url": "https://www.booking.com/hotel/fr/au-coeur-du-centre-historique-bayeux.fr.html", "score": "9,3", "rating_stars": "0.0", "latitude": "49.27407400", "longitude": "-0.70674400"},
    {"city": "Bayeux", "name": "Chambre d\u00b4hote En Famille", "url": "https://www.booking.com/hotel/fr/chambre-d-hote-en-famille.fr.html", "score": "9,4", "rating_stars": "0.0", "latitude": "49.27541300", "longitude": "-0.69736500"},
    {"city": "Bayeux", "name": "Le Monast\u00e8re", "url": "https://www.booking.com/hotel/fr/le-monastere-bayeux.fr.html", "score": "9,2", "rating_stars": "3.0", "latitude": "49.27522565", "longitude": "-0.70899847"},
    {"city": "Bayeux", "name": "G\u00eete de la cath\u00e9drale", "url": "https://www.booking.com/hotel/fr/gite-de-la-cathedrale.fr.html", "score": "9,5", "rating_stars": "0.0", "latitude": "49.27660730", "longitude": "-0.70339724"},
    {"city": "Bayeux", "name": "H\u00f4tel d'Argouges", "url": "https://www.booking.com/hotel/fr/d-argouges.fr.html", "score": "8,8", "rating_stars": "3.0", "latitude": "49.27899410", "longitude": "-0.70841700"},
    {"city": "Bayeux", "name": "Campanile Bayeux", "url": "https://www.booking.com/hotel/fr/campanile-bayeux.fr.html", "score": "7,5", "rating_stars": "3.0", "latitude": "49.26999926", "longitude": "-0.70694983"},
    {"city": "Bayeux", "name": "Villa Des Ursulines", "url": "https://www.booking.com/hotel/fr/appartement-des-ursulines.fr.html", "score": "8,7", "rating_stars": "0.0", "latitude": "49.27646775", "longitude": "-0.70556582"},
    {"city": "Bayeux", "name": "Hotel Particulier de Sainte Croix", "url": "https://www.booking.com/hotel/fr/de-sainte-croix.fr.html", "score": "9,6", "rating_stars": "0.0", "latitude": "49.27990374", "longitude": "-0.70877506"},
    {"city": "Bayeux", "name": "Le Tardif, Noble Guesthouse", "url": "https://www.booking.com/hotel/fr/tardif-noble-guesthouse.fr.html", "score": "9,4", "rating_stars": "0.0", "latitude": "49.27454414", "longitude": "-0.70200115"},
    {"city": "Bayeux", "name": "Immolidays", "url": "https://www.booking.com/hotel/fr/immolidays.fr.html", "score": "8,4", "rating_stars": "0.0", "latitude": "49.27905535", "longitude": "-0.70856206"}
    ]